,Station,Longitude,Latitude,Ref. value,Plot Color
671,ABERDEEN,-98.4131,45.4558,-0.001328546,No Color
931,ABERDEEN EXP STN,-112.8253,42.9536,-0.005423694,No Color
1286,ABERDEEN PHILLIPS FLD,-76.1697,39.4717,-0.005840726,No Color
2041,ABILENE,-97.2128,38.9267,-0.010592517,No Color
2384,ABILENE RGNL AP,-99.6822,32.4106,-0.003039194,No Color
1327,ABIQUIU DAM,-106.4278,36.2403,-0.010501108,No Color
1738,ACADEMY 2NE,-99.0631,43.4892,0.001538115,Dark Green
2495,ADDISON,-77.2344,42.1014,-0.003828451,No Color
31,ADEL,-119.8961,42.1761,0.001229552,Dark Green
936,ADRIAN 2 NNE,-84.0158,41.9164,-0.004192528,No Color
158,AFTON,-110.9297,42.7292,-0.007402801,No Color
1558,AGASSIZ REFUGE,-95.9817,48.3006,-0.007514569,No Color
273,AGUILA,-113.1875,33.9433,-0.00158514,No Color
2512,AGUIRRE,-66.2222,17.9556,-0.011841677,No Color
733,AIBONITO 1 S,-66.2642,18.1281,0.004783368,Darkest Green
1739,AINSWORTH,-99.8556,42.5522,-0.00446768,No Color
1494,AITKIN 2E,-93.6675,46.5258,-0.00226144,No Color
70,AJO,-112.86,32.3697,-0.007139517,No Color
1665,AKRON 4 E,-103.1417,40.155,-0.005864086,No Color
1767,AKRON CANTON RGNL AP,-81.4333,40.9167,-0.003122962,No Color
1859,AKRON WASHINGTON CO AP,-103.2167,40.1667,-0.005745039,No Color
2515,ALAMOSA SAN LUIS AP,-105.8614,37.4389,-0.005485544,No Color
2220,ALBANY 3 SE,-84.1489,31.5339,-0.008991105,No Color
1026,ALBANY AP,-73.8092,42.7431,-0.006824169,No Color
1690,ALBEMARLE,-80.1994,35.3992,-0.003552234,No Color
706,ALBERT LEA 3 SE,-93.3019,43.6064,-0.001365956,No Color
681,ALBERTA FORD FOR CTR,-88.4811,46.6447,-0.004419615,No Color
1936,ALBIA 3 NNE,-92.7867,41.0656,0.003034064,Darkest Green
2602,ALBION 1 N,-104.2647,45.2089,-0.007553623,No Color
2127,ALBION 2 NE,-78.1664,43.2722,-0.005556553,No Color
2047,ALBUQUERQUE INTL AP,-106.6156,35.0419,-0.008965878,No Color
1679,ALCALDE,-106.0567,36.0908,0.000695655,Dark Green
1222,ALCOVE DAM,-73.9267,42.4697,-0.006139392,No Color
1911,ALEDO,-90.7417,41.2019,0.001945937,Darkest Green
1105,ALEXANDRIA,-97.7847,43.6514,-0.003535469,No Color
1743,ALEXANDRIA MUNI AP,-95.3942,45.8678,-0.004867118,No Color
897,ALFRED,-77.7583,42.2497,-0.005371778,No Color
1433,ALGONA 3 W,-94.3053,43.0683,-0.001789623,No Color
2576,ALICEVILLE,-88.155,33.1272,-0.001707332,No Color
2269,ALLARDT,-84.8744,36.3806,-0.000709632,No Color
2570,ALLATOONA DAM 2,-84.73,34.165,-0.007445896,No Color
1064,ALLEGANY SP,-78.7497,42.1003,-0.003635765,No Color
1202,ALLENTOWN INTL AP,-75.4492,40.6508,-0.00417932,No Color
949,ALLIANCE 1WNW,-102.8967,42.1103,-0.005103915,No Color
2115,ALMA BACON CO AP,-82.5067,31.5358,-0.005789133,No Color
1347,ALMA DAM 4,-91.9194,44.3272,-0.005029259,No Color
1094,ALPENA CO RGNL AP,-83.5644,45.0717,-0.006742476,No Color
2479,ALPENA WWTP,-83.4281,45.0606,-0.006009877,No Color
58,ALTA 1 NNW,-111.0339,43.7728,-0.001988163,No Color
138,ALTAMONT,-110.2878,40.3561,-0.004149128,No Color
826,ALTENBERN,-108.3794,39.5008,-0.004598763,No Color
89,ALTON,-112.4819,37.4403,-0.005727674,No Color
2551,ALTON MELVIN PRICE L&D,-90.1464,38.8664,-0.007216865,No Color
2114,ALTOONA BLAIR CO AP,-78.3203,40.2964,-0.001753137,No Color
186,ALTURAS,NA,NA,0.000835852,Dark Green
2462,ALTUS DAM,-99.2964,34.8847,-0.002448354,No Color
2331,ALUM FORK,-92.8417,34.7961,0.00158369,Dark Green
1440,AMARILLO,-101.7089,35.2333,-0.002398179,No Color
2459,AMERY,-92.3631,45.3011,-0.004596886,No Color
1981,AMISTAD 5 SSW,-103.1819,35.8742,-0.0008903,No Color
2456,AMITY 4 NE,-94.36,39.8914,-0.002032041,No Color
666,ANACORTES,-122.6136,48.5119,-0.006519567,No Color
2580,ANADARKO 3 E,-98.1989,35.0619,0.002204343,Darkest Green
2353,ANAHUAC,-94.6342,29.7878,-0.000294061,No Color
185,ANCHORAGE INTL AP,-150.0278,61.1689,-0.003107934,No Color
2707,ANCHORAGE MERRILL FLD,-149.855,61.2169,-0.009005916,No Color
991,ANDALUSIA 3 W,-86.5225,31.3072,-0.00507559,No Color
533,ANDERSON CO AP,-82.7097,34.4978,-0.001478338,No Color
117,ANDERSON DAM,-115.4522,43.3572,0.000778233,Dark Green
959,ANDERSON SEWAGE PLT,-85.7164,40.1117,-0.004481135,No Color
815,ANGELICA,-78.0231,42.3108,-0.004015797,No Color
1863,ANGLETON 2 W,-95.4592,29.1572,-0.011510965,No Color
358,ANGWIN PAC UNION COL,-122.4406,38.5731,-0.005579093,No Color
2030,ANIMAS 3ESE,-108.7689,31.9381,-0.007497082,No Color
2482,ANKENY,-93.5742,41.7183,-0.001124438,No Color
1177,ANN ARBOR U OF MICH,-83.7108,42.2947,-0.003546174,No Color
2268,ANNA 2 NNE,-89.2344,37.4814,-0.00130442,No Color
212,ANNETTE ISLAND AP,-131.5786,55.0389,-0.003470958,No Color
1973,ANNEX CREEK,-134.1003,58.3183,-0.001154425,No Color
1888,ANNISTON METRO AP,-85.8556,33.5872,-0.004103456,No Color
1125,ANSON,-99.89,32.7667,0.000535063,Dark Green
64,ANTELOPE 6 SSW,-120.7533,44.8197,0.002394612,Darkest Green
2585,ANTHONY,-98.0283,37.155,-0.000216267,No Color
275,ANTIOCH PUMPING PLANT #3,-121.7525,37.9833,-0.00987467,No Color
1137,ANTLERS,-95.615,34.2208,-0.002217668,No Color
1562,APALACHICOLA AIRPORT,-85.0206,29.7258,-0.00436239,No Color
1128,APPLETON,-88.4378,44.2769,-0.002688717,No Color
2344,APPLETON CITY,-94.0281,38.1869,0.000297283,No Color
2393,ARCO,-113.2989,43.6356,-0.009934479,No Color
2601,ARDMORE 1 NW,-103.66,43.03,-0.005411026,No Color
2345,ARKADELPHIA 2 N,-93.0589,34.1433,-0.005180585,No Color
223,ARROWROCK DAM,-115.9236,43.5936,-0.006988121,No Color
2040,ARTESIA 6S,-104.3836,32.7547,-0.005302464,No Color
885,ARTHUR,-101.6914,41.5697,-0.006252767,No Color
667,ARTICHOKE LAKE,-96.1542,45.3783,-0.003212529,No Color
22,ASH MTN,-118.8253,36.4914,-0.00277119,No Color
2261,ASHBURN 3 ENE,NA,NA,-0.004469282,No Color
1587,ASHEBORO 2 W,-79.8378,35.7044,-0.003560082,No Color
1940,ASHEVILLE,-82.5567,35.5953,-0.00407196,No Color
1962,ASHEVILLE RGNL AP,-82.5375,35.4319,-0.005313863,No Color
1305,ASHLAND,-77.4833,37.75,-0.007280603,No Color
2140,ASHLAND 3 ENE,-85.7789,33.2942,-0.004671061,No Color
1747,ASHLAND NO 2,-96.3811,41.0408,-0.000928702,No Color
785,ASHLEY,-99.3742,46.0406,-0.005663875,No Color
1282,ASHTON 1N,-111.2739,44.0425,-0.005733293,No Color
730,ASTORIA RGNL AP,-123.8825,46.1569,-0.004087754,No Color
1964,ATHENS BEN EPPS AP,-83.3275,33.9481,-0.005179389,No Color
2484,ATKINSON 3SW,-99.0303,42.5136,-0.00436328,No Color
2029,ATLANTA HARTSFIELD INTL AP,-84.4417,33.63,-0.011201099,No Color
2451,ATLANTIC 1 NE,-95.0039,41.4175,-0.00242346,No Color
2163,ATLANTIC CITY,-74.4242,39.3792,-0.008278773,No Color
2149,ATLANTIC CITY INTL AP,-74.5672,39.4494,-0.008702304,No Color
2709,ATMORE,-87.4389,31.1819,-0.005708653,No Color
744,ATWOOD,-101.0422,39.7997,-0.002195306,No Color
3,AUBERRY 2 NW,-119.5128,37.0919,-0.008242599,No Color
2359,AUBURN 5 ESE,-95.7469,40.3706,-0.000633412,No Color
783,AUGUSTA,-112.3964,47.4931,-0.004087907,No Color
1897,AUGUSTA BUSH FLD AP,-81.9633,33.3644,-0.005842418,No Color
990,AUGUSTA STATE AP,-69.7972,44.3206,-0.002346272,No Color
2678,AUGUSTINE 2E,-107.6211,34.075,-0.010209773,No Color
1033,AURORA RSCH FARM,-76.6592,42.7339,-0.005546136,No Color
1041,AUSTIN-CAMP MABRY,-97.7603,30.3208,-0.009618535,No Color
281,AUSTIN #2,-117.0675,39.4931,-0.006432855,No Color
232,AUSTIN 1 W,-112.2656,46.6456,-0.001398382,No Color
2642,AUSTIN BERGSTROM AP,-97.68,30.1831,-0.002939648,No Color
628,AUSTIN WWT FAC,-92.9739,43.6542,0.001633321,Dark Green
542,AVON PARK 2 W,-81.5267,27.5947,-0.001494141,No Color
2059,AZTEC RUINS NM,-108.0006,36.835,-0.004558064,No Color
2561,BACK BAY WR,-75.9114,36.6619,-0.008853726,No Color
888,BAD AXE,-82.9939,43.8081,-0.003021195,No Color
259,BAGDAD,-113.1739,34.5972,0.001643361,Dark Green
747,BAILEY,-105.4767,39.4047,-0.000599778,No Color
249,BAKER CITY MUNI AP,-117.8086,44.8428,0.004651231,Darkest Green
256,BAKERSFIELD AP,-119.0542,35.4344,0.000391185,No Color
2581,BALLINGER 2 NW,-99.9764,31.7414,-0.003280006,No Color
1084,BALMORHEA,-103.7403,30.9844,-0.000176775,No Color
1290,BALTIMORE WASH INTL AP,-76.6833,39.1667,-0.004177061,No Color
2229,BAMBERG,-81.0306,33.3,-0.003805112,No Color
428,BANDON 2 NNE,-124.4019,43.1497,-0.000868079,No Color
1047,BANGOR INTL AP,-68.8186,44.7978,-0.00364401,No Color
2473,BANKHEAD LOCK & DAM,-87.3572,33.4528,-0.005294516,No Color
2169,BANNER ELK,-81.8742,36.1617,-0.003958231,No Color
1087,BARABOO,-89.7269,43.4583,-0.005808024,No Color
1658,BARBOURVILLE,-83.8819,36.8825,-0.002190372,No Color
2064,BARDSTOWN 5E,-85.3847,37.8194,-0.001146256,No Color
2217,BARRE FALLS DAM,-72.0275,42.4281,-0.005325169,No Color
761,BARRE MONTPELIER AP,-72.5794,44.2033,-0.005650289,No Color
1173,BARROW POST ROGERS AP,-156.7814,71.2833,-0.007074377,No Color
116,BARSTOW DAGGETT AP,-116.7858,34.8536,-0.001434459,No Color
1386,BARTLESVILLE F P FLD,-96.0261,36.7683,-0.000133653,No Color
135,BARTLETT DAM,NA,NA,-0.009265262,No Color
323,BARTOW,-81.8433,27.8986,-0.007155123,No Color
1847,BASIN,-108.035,44.38,-0.002219918,No Color
833,BATAVIA,-78.1692,43.0303,-0.005815144,No Color
2272,BATESVILLE 2 SW,-89.9806,34.3061,-0.004142701,No Color
2321,BATESVILLE L&D 1,-91.6386,35.7597,-0.001866916,No Color
2339,BATESVILLE LVSTK,-91.7944,35.8306,-0.001509489,No Color
1055,BATON ROUGE RYAN AP,-91.1469,30.5372,-0.006193659,No Color
1702,BATTLE CREEK 5NW,-85.2667,42.3667,-0.004314729,No Color
227,BATTLE GROUND,-122.5286,45.7717,-0.003161723,No Color
566,BATTLE MOUNTAIN 4SE,-116.8917,40.6117,-0.010806827,No Color
1507,BAUDETTE,NA,NA,-0.007074007,No Color
1635,BAXTER,-83.3303,36.8583,-0.003841702,No Color
2317,BAY CITY WTR WKS,-95.975,28.9797,-0.005507893,No Color
2094,BAY MINETTE,-87.7853,30.8839,-0.004380294,No Color
2227,BAYARD,-79.3683,39.2728,-0.001540808,No Color
2660,BAYTOWN,-94.9908,29.9142,-0.006539693,No Color
552,BAYVIEW MODEL BASIN,-116.5594,47.9803,-0.000569249,No Color
1838,BEACONSFIELD,-94.0475,40.8236,0.002043362,Darkest Green
2005,BEAUFORT MCAS,-80.7167,32.4833,-0.005172143,No Color
586,BEAUMONT CITY,-94.0997,30.0969,-0.006939056,No Color
2701,BEAUMONT RSCH CTR,-94.2928,30.0689,-0.011058795,No Color
1015,BEAVER CITY,-99.8278,40.1306,-0.001502036,No Color
72,BEAVER FALLS,-131.4683,55.38,-0.002931801,No Color
1642,BECKLEY VA HOSPITAL,-81.1939,37.7647,0.000185536,No Color
2632,BEDFORD HANSCOM FLD,-71.2894,42.47,-0.003777494,No Color
1502,BEEVILLE 5 NE,-97.7061,28.4575,-0.005494427,No Color
1604,BELCOURT KEYA RADIO,-99.7508,48.8411,-0.002795753,No Color
973,BELFAST,-68.9892,44.4394,0.00166642,Dark Green
497,BELLE FOURCHE,-103.8511,44.6714,-0.005786845,No Color
1805,BELLE MINA 2 N,-86.8819,34.6892,-0.002709141,No Color
1866,BELLE PLAINE,-92.2764,41.8814,0.001715176,Dark Green
893,BELLEFONTAINE,-83.7747,40.3533,-0.002787855,No Color
2142,BELLEVILLE SIU RSCH,-89.8467,38.52,-0.008559281,No Color
1425,BELLEVUE L&D 12,-90.423,42.2611,-0.000907473,No Color
16,BELLINGHAM INTL AP,-122.5372,48.7939,-0.003754922,No Color
1880,BELOIT,-89.0311,42.5039,-0.001781645,No Color
2497,BELTSVILLE,-76.9314,39.0303,-0.010123897,No Color
1990,BELZONI,-90.4919,33.1772,-0.006323552,No Color
2413,BENBROOK DAM,-97.4439,32.6475,-0.006005364,No Color
69,BEND,-121.285,44.0569,-0.004566681,No Color
1580,BENKELMAN,-101.5325,40.0503,-0.006451507,No Color
1680,BENT CREEK,-82.5967,35.5044,-0.003905001,No Color
2612,BEOWAWE,-116.475,40.5903,0.000498149,Dark Green
1672,BEREA COLLEGE,-84.2908,37.5733,-0.000680073,No Color
1143,BERGLAND DAM,-89.5475,46.5869,-0.004572742,No Color
390,BERKELEY,-122.2606,37.8744,-0.002539287,No Color
1918,BERNE WWTP,-84.9305,40.6683,-0.00388761,No Color
455,BETATAKIN,-110.5411,36.6778,-0.003407571,No Color
424,BETHEL AP,-161.8292,60.785,-0.004556403,No Color
163,BETTLES AP,-151.5089,66.9161,-0.001383961,No Color
501,BEULAH,-118.1522,43.9092,-0.000904579,No Color
433,BICKLETON,-120.3006,45.9981,-0.001547628,No Color
443,BIG BAR 4 E,-123.2078,40.7406,-0.003650665,No Color
1039,BIG DELTA AP,-145.7214,63.9944,-0.00263123,No Color
685,BIG FALLS,-93.7994,48.1969,-0.007564777,No Color
240,BIG PINEY MARBLETON AP,-110.1075,42.5844,-0.006602646,No Color
569,BIG RAPIDS WTR WKS,-85.4822,43.7072,-0.003054004,No Color
1511,BIG SPRING,-101.4536,32.2442,-0.003915889,No Color
997,BIG SPRINGS,-102.1467,41.0469,-0.006194424,No Color
914,BIG TIMBER,-109.9503,45.8328,-0.002859829,No Color
590,BIGFORK 13 S,-114.0331,47.875,-0.006990024,No Color
2464,BILLINGS,-97.4472,36.5297,0.001202548,Dark Green
847,BILLINGS LOGAN INTL AP,-108.5422,45.8069,-0.004677774,No Color
347,BILLINGS WTP,-108.4811,45.7717,-0.008126334,No Color
2510,BILOXI,-89.0008,30.3931,-0.001837009,No Color
2667,BINGHAM 2 NE,-106.3494,33.9114,-0.004312552,No Color
998,BINGHAMTON,-75.985,42.1997,-0.00322638,No Color
1224,BIRCH HILL DAM,-72.1233,42.6325,-0.005652126,No Color
1941,BIRMINGHAM AP,-86.745,33.5656,-0.007724202,No Color
353,BISHOP AP,-118.3581,37.3711,-0.003654668,No Color
2146,BISHOPVILLE 1ENE,-80.2392,34.2169,-0.007035635,No Color
1840,BISMARCK,-100.7603,46.7708,-0.005667382,No Color
1348,BISON,-102.465,45.5286,-0.004749541,No Color
2595,BISON 3NW,-99.235,38.5636,0.000979064,Dark Green
2078,BITTER LAKES WR,-104.4042,33.4594,-0.002244876,No Color
4,BLACK RIVER PUMPS,-109.7517,33.4783,-0.001700621,No Color
816,BLACK ROCK,-112.9539,38.7075,-0.002580058,No Color
1239,BLACKFOOT FIRE DEPT,-112.3531,43.1969,-0.003517047,No Color
2248,BLACKSBURG NWSO,-80.4133,37.2017,-0.005911504,No Color
1464,BLAINE,-122.7928,48.9775,-0.002013459,No Color
1920,BLAIRSVILLE EXP STN,-83.9444,34.8544,-0.007019649,No Color
1884,BLAKELY,-84.5553,31.2239,-0.002348319,No Color
2358,BLAKELY MTN DAM,-93.1947,34.5697,-0.001787477,No Color
2544,BLANCHARD 2 SSW,-97.67,35.1183,-0.000731329,No Color
1500,BLANCO,-98.4286,30.1061,-0.003209256,No Color
2431,BLANDING,-109.4847,37.6131,-0.015129214,No Color
1165,BLOOMER,-91.4886,45.0956,-0.000540117,No Color
1872,BLOOMFIELD 1 WNW,-92.4394,40.7597,-0.001363066,No Color
1359,BLOOMFIELD 3 SE,-107.9603,36.6669,-0.003376498,No Color
889,BLOOMINGDALE,-85.9625,42.3842,-0.006838172,No Color
2132,BLOOMINGTON IN UNIV,-86.5214,39.1742,-0.001623545,No Color
181,BLUE CANYON AP,-120.7103,39.2775,-0.006301655,No Color
1553,BLUEFIELD MERCER CO AP,-81.2078,37.2958,-0.008328178,No Color
1774,BLUESTONE LAKE,-80.8831,37.6411,-0.007965808,No Color
2045,BLUFF,-109.5575,37.2825,-0.011415148,No Color
383,BLYTHE,NA,NA,-0.010730095,No Color
41,BLYTHE AP,-114.7142,33.6186,-0.006105147,No Color
65,BOCA,-120.0936,39.3886,-0.00527972,No Color
2502,BOERNE,-98.7353,29.7986,-0.004387329,No Color
1270,BOISE AIR TERMINAL,-116.2406,43.5667,-0.005991929,No Color
1398,BOISE CITY 2 E,-102.4806,36.7236,-0.003602704,No Color
38,BOISE LUCKY PEAK DAM,-116.0542,43.5253,-0.002907682,No Color
2311,BOLIVAR 1 NE,-93.3911,37.6167,-0.004399635,No Color
2177,BOLIVAR WTR WKS,-88.9892,35.2622,-0.002032225,No Color
1607,BONDURANT,-110.4358,43.2278,-0.005350614,No Color
1050,BONHAM 3NNE,-96.1661,33.6403,-0.000123362,No Color
577,BONNERS FERRY,-116.3103,48.6928,-0.001403675,No Color
262,BONNEVILLE DAM,-121.9519,45.6361,-0.005052756,No Color
1670,BONNY DAM 2NE,-102.1192,39.6567,-0.007429301,No Color
1794,BOONEVILLE,-88.5622,34.6344,-0.005834571,No Color
1212,BOONTON 1 SE,-74.4033,40.8922,-0.010863007,No Color
1011,BOONVILLE 4 SSW,-75.3697,43.4361,-0.00305112,No Color
2010,BORGER,-101.4542,35.6364,-0.002907603,No Color
519,BORINQUEN AP,-67.1294,18.4981,-0.003019531,No Color
2076,BOSQUE DEL APACHE,-106.8908,33.8044,-0.007541906,No Color
899,BOSTON LOGAN INTL AP,-71.0106,42.3606,-0.004857813,No Color
1497,BOTTINEAU,-100.4525,48.8217,-0.00201947,No Color
51,BOULDER,-111.42,37.905,-0.006471581,No Color
149,BOUSE,-114.0242,33.9431,-0.00562167,No Color
2397,BOWIE,-97.8472,33.5511,0.005334181,Darkest Green
1928,BOWLING GREEN WARREN CO AP,-86.4239,36.9647,-0.006145551,No Color
1517,BOWLING GREEN WWTP,-83.6111,41.3831,-0.001087275,No Color
881,BOYSEN DAM,-108.1633,43.4053,0.002416809,Darkest Green
1272,BOZEMAN GALLATIN FLD,-111.1608,45.7881,-0.003467462,No Color
1308,BOZEMAN MONTANA ST U,-111.0453,45.6622,-0.003913159,No Color
1454,BRACKETTVILLE,-100.4144,29.3167,-0.003350524,No Color
810,BRADFORD 4SW RES 5,-78.7144,41.8975,-0.004960018,No Color
919,BRADFORD RGNL AP,-78.6403,41.8031,-0.006371461,No Color
1510,BRADY,-99.3492,31.1444,-0.006696116,No Color
987,BRAINERD,-94.2086,46.3433,-0.006156372,No Color
1845,BRANDENBERG,-106.2314,45.8161,-0.004415223,No Color
1300,BRASSUA DAM,-69.812,45.6603,-0.005791594,No Color
2460,BRECKENRIDGE,-98.9017,32.75,-0.002760492,No Color
1088,BREDETTE,-105.2992,48.5156,-0.000517186,No Color
349,BREMERTON,-122.6828,47.5689,-0.002568297,No Color
2453,BRENHAM,-96.3972,30.1592,-0.003596569,No Color
2204,BREVARD,-82.7358,35.2283,-0.001910769,No Color
1763,BREWTON 3 SSE,-87.055,31.0583,-0.004002629,No Color
1589,BRIDGEHAMPTON,-72.3069,40.9461,-0.005978886,No Color
1537,BRIDGEPORT,-97.7761,33.2064,-0.004424508,No Color
2668,BRIDGEPORT 5 NW,-85.8008,34.9786,-0.00173236,No Color
1004,BRIDGEPORT SIKORSKY MEM AP,-73.1289,41.1583,-0.006491855,No Color
1249,BRIDGER 2 N,-108.9092,45.3261,-0.003555973,No Color
1659,BRIDGEWATER,-97.5017,43.5525,-0.000207815,No Color
1007,BRIDGTON 3 NW,-70.7467,44.07,-0.00031927,No Color
489,BRIGHT ANGEL RS,-112.062,36.2147,-0.005720503,No Color
2557,BRINKLEY,-91.2153,34.8822,-0.005298323,No Color
1898,BRISTOL TRI CITY AP,-82.4044,36.4731,-0.002044614,No Color
680,BRITT,-93.8014,43.1017,0.002714046,Darkest Green
1126,BRITTON,-97.75,45.7908,-0.004397537,No Color
453,BROADUS,-105.4072,45.4442,-0.010286281,No Color
1187,BROCKTON,-71.005,42.0478,-0.007924518,No Color
2526,BROCKWAY 3 WSW,-105.83,47.2875,-0.005192308,No Color
1378,BRODHEAD,-89.3861,42.6181,-0.00647298,No Color
1273,BROKEN BOW 2 W,-99.675,41.4083,0.000368477,No Color
531,BROOKGREEN GARDENS,-79.0975,33.5214,-0.007976595,No Color
1413,BROOKHAVEN CITY,-90.4581,31.5447,-0.001633986,No Color
1723,BROOKINGS 2 NE,-96.7686,44.3253,-0.004823379,No Color
2501,BROOKLET 1 W,-81.673,32.375,-0.005974483,No Color
2432,BROWNFIELD #2,-102.2681,33.1908,-0.006371205,No Color
861,BROWNSVILLE,-97.4186,25.9156,-0.008571341,No Color
2467,BROWNWOOD 2ENE,-98.9456,31.7383,-0.001038467,No Color
956,BRUNSWICK,-93.1331,39.4247,3.61E-05,No Color
948,BRUNSWICK MALCOLM MCKINNON AP,-81.3908,31.1522,-0.00548759,No Color
217,BRYCE CANYON AP,-112.1456,37.7064,-0.003371496,No Color
265,BRYCE CANYON NP HQRS,-112.1689,37.6411,-0.005357733,No Color
2143,BUCHANAN,-79.6817,37.5247,-0.008761935,No Color
1830,BUCKHANNON,-80.22,38.9803,-0.003229585,No Color
839,BUCYRUS,-83.6111,40.8128,-0.00409279,No Color
1184,BUENA VISTA 2S,-106.1275,38.8247,-0.003072361,No Color
909,BUFFALO,-78.7369,42.9486,-0.004390552,No Color
2355,BUFFALO 2N,-93.1067,37.6667,0.000764458,Dark Green
1759,BUFFALO 2NE,-93.84,45.1969,-0.000606717,No Color
464,BUFFALO BILL DAM,-109.1675,44.5075,-0.002238887,No Color
1204,BUFFUMVILLE LAKE,-71.9075,42.1164,-0.007455509,No Color
1124,BUNKIE,-92.1786,30.9594,-0.005748252,No Color
48,BURBANK VLY PUMP PLT,-118.3481,34.1867,-0.002013394,No Color
1833,BURKES GARDEN,-81.3358,37.0925,-0.000814264,No Color
1287,BURLEY MUNI AP,-113.7661,42.5417,-0.003673055,No Color
1993,BURLINGTON FIRE STN #5,-79.4481,36.0603,-0.005181678,No Color
823,BURLINGTON INTL AP,-73.15,44.4683,-0.00955697,No Color
1908,BURLINGTON MUNI AP,-91.1253,40.7833,-0.005520435,No Color
1484,BURNET,-98.2339,30.7586,-0.002876199,No Color
78,BURNEY,-121.6547,40.8803,-0.004914806,No Color
2716,BURR OAK 1N,-98.3036,39.8775,-0.025042309,No Color
2651,BURWELL,-99.1433,41.7769,-0.005102332,No Color
402,BUSBY,-106.9597,45.5397,-0.006269472,No Color
1113,BUSHNELL 1 E,-82.0894,28.6664,-0.000113313,No Color
2326,BUTLER 4W,-94.405,38.2611,-0.004780565,No Color
1115,BUTTE 5SE,-100.5847,47.7947,0.001138713,Dark Green
1321,BUTTE BERT MOONEY AP,-112.5006,45.9647,-0.003018201,No Color
205,BUTTONWILLOW,-119.4731,35.4047,-0.007331765,No Color
957,BYERS 5 ENE,-104.1275,39.7403,-0.005673842,No Color
898,CABINET GORGE,-116.0572,48.0864,-0.001221057,No Color
396,CACHUMA LAKE,-119.9817,34.5822,-0.005974872,No Color
560,CADILLAC,-85.3967,44.2656,-0.007369018,No Color
2669,CAIRO 1SW,-84.2175,30.8697,-0.000542044,No Color
1243,CAIRO 3N,-89.1856,37.0422,0.005859804,Darkest Green
662,CALEDONIA,-91.5028,43.6308,-0.004141155,No Color
1926,CALHOUN FALLS,-82.5883,34.0906,-0.00593136,No Color
2000,CALHOUN RSCH STN,-92.3486,32.5133,-0.002480675,No Color
903,CALICO ROCK 2 WSW,-92.1636,36.1092,0.001218152,Dark Green
2350,CALIFORNIA,-92.5545,38.6278,0.001248208,Dark Green
224,CALLAHAN,-122.8045,41.3111,-0.000185981,No Color
2619,CAMARILLO AP,-119.0833,34.2167,-0.009226579,No Color
1080,CAMBRIDGE 5ESE,-93.1264,45.5506,-0.003781797,No Color
2223,CAMDEN 1,-92.8236,33.59,-0.003775205,No Color
1965,CAMILLA 3SE,-84.2036,31.1903,0.00205754,Darkest Green
475,CAMP CROOK,-103.9744,45.5489,-0.004902442,No Color
2283,CAMP HILL 2NW,-85.6561,32.8236,-0.004234329,No Color
400,CAMPO,-116.4728,32.6233,-0.006236728,No Color
401,CANAL POINT USDA,-80.6256,26.8639,-0.006279164,No Color
1543,CANANDAIGUA 3 S,-77.2808,42.8453,-0.006489997,No Color
687,CANBY,-96.2697,44.7183,-0.002103677,No Color
955,CANOE BROOK,-74.3539,40.7436,-0.010444342,No Color
1731,CANON CITY,-105.2256,38.46,0.000318342,No Color
697,CANTON,-96.5917,43.3056,-0.002615125,No Color
1021,CANTON 4 SE,-75.1097,44.5772,-0.007032942,No Color
1992,CANTON 4N,-90.0361,32.6714,-0.00282464,No Color
1664,CANTON L&D 20,-91.5158,40.1433,0.001964837,Darkest Green
303,CAPE HATTERAS AP,-75.6219,35.2325,-0.009035718,No Color
2218,CAPE MAY 2 NW,-74.9358,38.9536,-0.008397763,No Color
2260,CARBONDALE SEWAGE PLT,-89.1658,37.7308,-0.002393716,No Color
1028,CARIBOU MUNI AP,-68.0172,46.8706,-0.0050655,No Color
2472,CARLINVILLE,-89.8703,39.2883,-0.001495456,No Color
2084,CARLSBAD,-104.2225,32.3478,-0.002582793,No Color
1102,CARLSBAD CAVERN CITY AP,-104.2581,32.3336,-0.004877767,No Color
2390,CARLSBAD CAVERNS,-104.4433,32.1783,-0.006134952,No Color
423,CARMEL VALLEY,-121.7244,36.4806,-0.003384018,No Color
907,CARO WWTP,-83.3919,43.4839,-0.002387995,No Color
1051,CARRIZO SPRINGS 3S,-99.8733,28.4894,0.00087709,Dark Green
638,CARROLL,-94.85,42.065,-0.002466629,No Color
1370,CARROLLTON,-93.4886,39.3594,-0.002021285,No Color
106,CARSON CITY,-119.7678,39.1253,-0.005613492,No Color
1875,CARTERSVILLE,-84.7925,34.2042,-0.007103906,No Color
2351,CARTHAGE,-94.3397,32.1614,-0.005211005,No Color
1059,CARVILLE 2 SW,-91.1256,30.1981,-0.007202994,No Color
46,CASA GRANDE NM,-111.5367,32.9947,-0.007816747,No Color
846,CASCADE 1 NW,-116.0481,44.5228,-0.000184059,No Color
831,CASCADE 20 SSE,NA,NA,-0.004194928,No Color
1980,CASCADE 5 S,-111.71,47.2194,-0.00284562,No Color
1274,CASPER NATRONA CO AP,-106.4636,42.8975,-0.004041345,No Color
723,CASS LAKE,-94.6147,47.3847,-0.007228968,No Color
968,CASTANA EXP FARM,-95.8364,42.0633,-0.002130665,No Color
469,CASTLE DALE,-111.0125,39.2078,-0.003663588,No Color
304,CASTLE HOT SPRINGS,-112.3617,33.9825,-0.004469693,No Color
653,CAVALIER 7NW,-97.7014,48.8628,0.00072045,Dark Green
2042,CAVE RUN LAKE,-83.5328,38.1228,-0.006921521,No Color
1531,CAVENDISH,-72.5989,43.3847,-0.006576536,No Color
2614,CEDAR BLUFF DAM,-99.7231,38.7978,-0.002624971,No Color
549,CEDAR CITY MUNI AP,-113.0944,37.7086,0.002334018,Darkest Green
385,CEDAR ISLAND,-76.3,34.9833,-0.005698594,No Color
98,CEDAR LAKE,-121.7561,47.4144,0.000537714,Dark Green
2493,CEDAR POINT,-109.0828,37.7158,-0.00521434,No Color
2019,CEDAR RAPIDS MUNI AP,-91.7167,41.8833,-3.48E-05,No Color
1868,CEDAR RAPIDS NO 1,-91.5881,42.05,-0.004130401,No Color
1279,CEDARTOWN,-85.2339,34.0589,-0.002769996,No Color
1295,CEDARVILLE,-120.1803,41.5306,-0.00122642,No Color
1815,CELINA 3 NE,-84.5364,40.5694,-0.003832596,No Color
2297,CELO 2 S,-82.1769,35.8297,-0.010170539,No Color
2307,CENTER,-94.1642,31.8075,-0.009437524,No Color
2034,CENTER 4 SSW,NA,NA,-0.006466543,No Color
1853,CENTER 4SE,-101.2119,47.0644,-0.003204491,No Color
1012,CENTERBURG 2 SE,-82.6547,40.2914,-0.006585704,No Color
1467,CENTERVILLE,-95.9744,31.2581,-0.003181032,No Color
781,CENTERVILLE 6 SE,-96.9033,43.0431,-0.005062104,No Color
1621,CENTRAL CITY,-98.0283,41.1222,-0.003495001,No Color
1986,CERRO,-105.5956,36.7408,-0.000631696,No Color
1566,CHADRON 3SW,-103.0533,42.8083,-0.002555454,No Color
2053,CHAMA,-106.5781,36.9178,-0.00396373,No Color
2485,CHAMBERS,-98.7467,42.2031,-0.003582051,No Color
2480,CHAMBERSBURG 1 ESE,-77.6394,39.9353,-0.008485366,No Color
2167,CHANUTE MARTIN JOHNSON AP,-95.4842,37.6703,-0.002825653,No Color
1987,CHAPEL HILL 2 W,-79.0794,35.9086,-0.008530777,No Color
301,CHARDON,-81.1833,41.5833,-0.003347454,No Color
1393,CHARITON 1 E,-93.2792,41.0164,0.001648743,Dark Green
711,CHARLES CITY,-92.6717,43.0603,0.000817556,Dark Green
1978,CHARLESTON CITY,-79.9319,32.78,-0.007216562,No Color
2141,CHARLESTON INTL AP,-80.0403,32.8986,-0.007002582,No Color
1624,CHARLESTON YEAGER AP,-81.59,38.3794,-0.005658407,No Color
2168,CHARLOTTE AMALIE AP,-64.9667,18.3331,-0.009517338,No Color
1647,CHARLOTTE COURT HOUSE,-78.6497,37.0522,-0.006541195,No Color
2145,CHARLOTTE DOUGLAS AP,-80.9553,35.2236,-0.003908347,No Color
1198,CHARLOTTEBURG RESERVE,-74.4233,41.0347,-0.010188148,No Color
1266,CHARLOTTESVILLE 2W,-78.5225,38.0328,-0.003240605,No Color
1144,CHARMANY FARM,-89.4819,43.0597,-0.002501417,No Color
2579,CHASE CITY,-78.4756,36.7775,0.002655144,Darkest Green
2498,CHATHAM,-79.4103,36.8225,-0.001389993,No Color
1792,CHATOM,-88.2503,31.4714,-0.00131793,No Color
1795,CHATTANOOGA LOVELL AP,-85.2014,35.0311,-0.010962661,No Color
1176,CHEBOYGAN,-84.4725,45.6528,-0.003640949,No Color
1554,CHEESMAN,-105.2783,39.2203,-0.000314199,No Color
284,CHELAN,-120.0381,47.8361,-0.004679258,No Color
111,CHEMULT,-121.7894,43.2292,-0.003069716,No Color
1899,CHENOA,-88.7108,40.7394,-0.004325751,No Color
734,CHERAW,-79.8833,34.7319,-0.008270254,No Color
324,CHERRY POINT MCAS,-76.8833,34.9,-0.002018046,No Color
1692,CHESTER 1 SE,-81.1958,34.6847,0.004305575,Darkest Green
1035,CHEWELAH,-117.7408,48.2733,-0.004700834,No Color
2531,CHEYENNE,-104.8061,41.1519,-0.004565111,No Color
1601,CHEYENNE WELLS,-102.3508,38.8219,-0.006052395,No Color
1772,CHICAGO MIDWAY AP 3SW,-87.7775,41.7372,-0.005141999,No Color
1427,CHICAGO OHARE INTL AP,-87.9336,41.995,-0.004176186,No Color
286,CHICO UNIV FARM,-121.8211,39.6911,-0.00633486,No Color
1161,CHIEF JOSEPH DAM,-119.6483,47.9967,-0.004201578,No Color
2284,CHILDERSBURG WTR PL,-86.3431,33.285,-0.004038847,No Color
2394,CHILDRESS MUNI AP,-100.2831,34.4272,-0.004980702,No Color
266,CHILLY BARTON FLAT,-113.8289,43.9772,-0.003022329,No Color
663,CHILTON,-88.1469,44.0328,-0.00297492,No Color
2628,CHINA LAKE NAF,-117.6931,35.6875,0.001543449,Dark Green
73,CHINO VALLEY,-112.4567,34.7569,-0.006926107,No Color
856,CHINOOK,-109.2256,48.5883,0.001077566,Dark Green
1717,CHIPLEY,-85.4847,30.7836,-0.003539881,No Color
921,CHIPPEWA LAKE,-81.9361,41.0517,-0.002982315,No Color
1057,CHISOS BASIN,-103.3003,29.2703,0.000144076,No Color
1837,CHOTEAU,-112.1919,47.8206,0.001758764,Dark Green
1037,CHRISTIANSTED AP,-64.8056,17.7028,-0.001201713,No Color
1841,CHUGWATER,-104.8222,41.7594,-0.005322352,No Color
1954,CHULA VISTA,-117.0858,32.64,-0.01233667,No Color
196,CHURCH BUTTES GAS PLT,-110.0856,41.3975,-0.003485698,No Color
2100,CIMARRON,-100.3456,37.8131,-0.001229651,No Color
1703,CIMARRON 4 SW,-104.9456,36.4661,-0.003397292,No Color
1857,CINCINNATI LUNKEN AP,-84.4189,39.1033,-0.000672578,No Color
840,CINCINNATI NORTHERN KY AP,-84.6717,39.0431,-0.003154148,No Color
2674,CIRCLE HOT SPRINGS,-144.6422,65.4939,0.003038949,Darkest Green
2197,CLANTON,-86.6522,32.8203,-0.00112751,No Color
1156,CLAREMORE 2 ENE,-95.5808,36.3225,-0.003484217,No Color
2587,CLARENDON,-100.8903,34.9325,-0.003667345,No Color
2422,CLARINDA,-95.0192,40.7244,0.003196594,Darkest Green
707,CLARION,-93.7336,42.72,-0.001772572,No Color
2199,CLARION 3 SW,-79.4361,41.1922,-0.00509885,No Color
1804,CLARKS HILL 1 W,-82.1897,33.6631,-0.005968904,No Color
2156,CLARKSBURG 1,-80.3522,39.2683,-0.004327593,No Color
2118,CLARKSDALE,-90.5572,34.1864,0.000312793,No Color
1889,CLARKSVILLE WWTP,-87.3353,36.5472,-0.006017703,No Color
741,CLATSKANIE,-123.2058,46.1081,0.002497107,Darkest Green
2035,CLAYTON 1 SSW,-83.4233,34.8483,-0.003874765,No Color
2560,CLAYTON MUNI AIR PK,-103.1539,36.4486,-0.008121147,No Color
1696,CLAYTON WTP,-78.4633,35.6408,-1.88E-05,No Color
166,CLE ELUM,-120.9131,47.1889,-0.00216422,No Color
32,CLEARBROOK,-122.3292,48.9672,-0.006413574,No Color
156,CLEARLAKE 4 SE,NA,NA,-0.005831188,No Color
462,CLEARMONT 5 SW,-106.4472,44.5781,-0.004771482,No Color
1789,CLEARWATER DAM,-90.7756,37.1319,-0.00519627,No Color
2461,CLEBURNE,-97.4061,32.3139,-0.004158223,No Color
499,CLEMSON UNIV,-82.8236,34.6603,-0.008983876,No Color
1061,CLERMONT 9 S,-81.7233,28.4558,-0.00243943,No Color
574,CLEVELAND,-81.86,41.4131,-0.008367886,No Color
541,CLEVELAND FLTR PLT,-84.7981,35.2203,-0.005226684,No Color
1916,CLINTON #1,-90.2639,41.7947,-0.003749492,No Color
778,CLINTONVILLE,-88.7483,44.6228,-0.002305179,No Color
724,CLOQUET,-92.5253,46.7047,-0.005540209,No Color
351,CLOVERDALE,-123.8925,45.205,-0.003048035,No Color
2400,CLOVIS 13 N,-103.2161,34.5989,-0.003866755,No Color
176,COALINGA,-120.3606,36.1356,-0.012269308,No Color
334,COCHETOPA CREEK,-106.7611,38.4461,-0.008590157,No Color
1881,CODEN,-88.2269,30.3875,0.000756009,Dark Green
838,CODY,-109.045,44.5147,-0.002481466,No Color
248,COEUR D'ALENE,-116.7967,47.6822,-0.001876689,No Color
1615,COLBY 1SW,-101.0689,39.3925,-0.007328946,No Color
1172,COLD BAY AP,-162.7325,55.2208,-0.001569656,No Color
1725,COLDWATER ST SCHOOL,-84.9925,41.9622,-0.005503392,No Color
2566,COLEMAN,-99.4339,31.8281,-0.003461791,No Color
859,COLLEGE OBSY,-147.8483,64.8603,-0.000495115,No Color
1086,COLLEGE STN,-96.3647,30.5892,-0.009360994,No Color
1697,COLLEGEVILLE ST JOHN,-94.3919,45.5794,-0.005599806,No Color
2281,COLLINS,-89.5572,31.6419,-0.004779672,No Color
1341,COLORADO NM,-108.7339,39.1014,-0.004099402,No Color
2540,COLORADO SPRINGS MUNI AP,-104.6883,38.81,-0.004864645,No Color
2509,COLOSO,-67.1569,18.3808,-0.010007282,No Color
2589,COLQUITT 2 W,NA,NA,0.00043586,No Color
858,COLSTRIP,-106.6336,45.8944,-0.004151614,No Color
2488,COLUMBIA,-81.1186,33.9486,-0.007746313,No Color
1446,COLUMBIA 3 WNW,-87.0864,35.6381,-0.000545484,No Color
1574,COLUMBIA 8 N,-98.3,45.725,0.000280383,No Color
2175,COLUMBIA UNIV OF SC,-81.0167,33.9831,-0.011846745,No Color
922,COLUMBUS-VALLEY CROSSING,-82.92,39.9047,-0.00361602,No Color
1627,COLUMBUS 3 NE,-97.3278,41.4639,-0.003512123,No Color
1905,COLUMBUS METRO AP,-84.9422,32.5161,-0.00918188,No Color
961,COLUMBUS PORT COLUMBUS INTL AP,-82.8808,39.9914,-0.007862073,No Color
270,COLUSA 2 SSW,-122.0269,39.1875,-0.004151468,No Color
2713,COLVILLE,-117.9019,48.5472,-0.011145784,No Color
2609,COMMERCE 4 NNW,-83.4894,34.2625,-0.008464819,No Color
2370,CONCEPTION,-94.6833,40.2394,-0.000119765,No Color
2414,CONCHAS DAM,-104.1906,35.4072,-0.006578768,No Color
459,CONCONULLY,-119.7492,48.5558,0.002069844,Darkest Green
735,CONCORD,-80.5833,35.4111,-0.005811028,No Color
892,CONCORD MUNI AP,-71.5011,43.1953,-0.006021127,No Color
1069,CONCORDIA MUNI AP,-97.6508,39.5514,-0.004537363,No Color
539,CONCRETE PPL FISH STN,-121.7422,48.5397,-0.000917272,No Color
415,CONDON,-120.1817,45.2325,-0.003592931,No Color
2233,CONFLUENCE 1 SW DAM,-79.3664,39.7994,-0.004767187,No Color
1223,CONOWINGO DAM,-76.1756,39.6556,-0.008911777,No Color
643,CONRAD,-111.9614,48.1794,-0.001825301,No Color
2310,CONROE,-95.4831,30.3303,-0.005729493,No Color
2181,CONWAY,-79.0558,33.8314,-0.006711626,No Color
1834,COOKEVILLE,-85.5033,36.1075,-0.002117377,No Color
1313,CORBIN,-77.3747,38.2022,-0.00784464,No Color
133,CORCORAN IRRIG DIST,-119.5817,36.0975,-0.005124783,No Color
2527,CORDELE,-83.7747,31.985,-0.003412649,No Color
194,CORDES,-112.165,34.305,-0.007202864,No Color
23,CORDOVA M K SMITH AP,-145.4511,60.4889,-0.000769881,No Color
2639,CORDOVA NORTH,-145.7531,60.5561,-0.005947378,No Color
1294,CORINNA,-69.2417,44.9197,-0.004686344,No Color
2231,CORINTH 7 SW,-88.6178,34.8792,-0.001597008,No Color
1891,CORNELIA,-83.5286,34.5181,-0.009132449,No Color
1008,CORNWALL,-73.2106,43.9572,-0.002807407,No Color
1030,CORPUS CHRISTI,-97.5108,27.7839,-0.00693042,No Color
1016,CORPUS CHRISTI NAS,-97.2833,27.6833,-0.002232502,No Color
2405,CORSICANA,-96.4867,32.1225,-0.006740444,No Color
2559,CORTEZ,-108.5931,37.3444,-0.007339382,No Color
258,CORVALLIS STATE UNIV,-123.19,44.6342,-0.005706871,No Color
589,COSHOCTON AG RSCH STN,-81.7908,40.3708,-0.006012008,No Color
198,COTTAGE GROVE 2E,-123.0275,43.7917,-0.00555413,No Color
587,COTTAGE GROVE DAM,-123.0578,43.7178,-0.005755191,No Color
941,COTTONWOOD 2 E,-101.8606,43.9611,-0.002839408,No Color
1000,COTTONWOOD FALLS,-96.5483,38.3703,0.000400359,No Color
800,COTTONWOOD WEIR,-111.7869,40.6242,0.000870001,Dark Green
1129,COTULLA LA SALLE CO AP,-99.2183,28.4567,-0.005967691,No Color
2475,COUDERAY 7 W,-91.4594,45.8003,-0.000759631,No Color
1275,COUGAR 6 E,-122.2042,46.0625,-0.009861908,No Color
25,COULEE DAM 1 SW,-118.9997,47.9544,-0.002075417,No Color
399,COUPEVILLE 1 S,-122.6914,48.2072,-0.007164726,No Color
2644,COVE 1 E,NA,NA,-0.002759768,No Color
272,COVELO,-123.2444,39.8158,-0.005479735,No Color
1967,COVINGTON,-83.8436,33.5972,-0.004334062,No Color
2112,COVINGTON 3 SW,-89.7,35.5497,-0.003912939,No Color
2129,COWEETA EXP STN,-83.4314,35.0592,-0.011625101,No Color
910,CRANDALL CREEK,-109.6436,44.8675,-0.001561756,No Color
1110,CRANE,-102.3578,31.4072,-0.005864327,No Color
74,CRATER LAKE NPS HQ,-122.1328,42.8967,-0.001430557,No Color
122,CRATERS OF THE MOON,-113.5581,43.465,-0.007990618,No Color
2700,CRESCENT CITY,-81.5161,29.425,0.009669615,Darkest Green
354,CRESCENT CITY 3 NNW,-124.2147,41.7958,0.00218005,Darkest Green
852,CRESCENT LAKE NWR,-102.4372,41.7608,-0.009311685,No Color
665,CRESCO 1 NE,-92.0939,43.3894,-0.001076754,No Color
1357,CRESTED BUTTE,-106.9769,38.8739,-8.95E-05,No Color
1397,CRESTON 2 SW,-94.3942,41.0372,-0.000656303,No Color
1548,CRESTVIEW BOB SIKES AP,-86.5225,30.7797,-0.004181585,No Color
1351,CRETE,-96.9469,40.6194,-0.00475772,No Color
722,CRIVITZ HIGH FALLS,-88.1919,45.3575,-0.000213222,No Color
2379,CROCKETT,-95.4508,31.3072,-0.010331214,No Color
1429,CROOKSTON NW EXP STA,-96.6028,47.8014,-0.000401414,No Color
1620,CROSBY,-103.2936,48.9075,-0.00384063,No Color
2434,CROSBYTON,-101.245,33.6517,-0.006472612,No Color
1913,CROSS CITY 1 E,-83.1053,29.6333,-0.003472394,No Color
594,CROSSETT 2 SSE,-91.9481,33.1111,-0.000866969,No Color
1944,CROSSVILLE ED & RESEARCH,-85.1314,36.0147,-0.007149979,No Color
1435,CROSSVILLE MEM AP,-85.0814,35.9508,-0.00607562,No Color
2232,CROWLEY 2 NE,-92.3478,30.2408,-0.011696139,No Color
2708,CRYSTAL SPGS EXP STN,-90.3775,31.9461,-0.006765766,No Color
2458,CUERO,-97.3433,29.0892,-0.002621981,No Color
1585,CULBERTSON,-100.8292,40.2333,-0.006616381,No Color
2271,CULLOWHEE,-83.1747,35.3117,-0.006688496,No Color
2507,CULVER CITY,-118.4139,34.005,0.005925284,Darkest Green
1480,CUMBERLAND,-92.0222,45.5333,-5.72E-05,No Color
2487,CURTIS 3NNE,-100.4936,40.6742,-0.005113517,No Color
2396,CUSHING,-96.7758,35.9803,-0.004216975,No Color
168,CUT BANK MUNI AP,-112.3753,48.6033,-0.00377275,No Color
1901,CUTHBERT,-84.7931,31.7672,0.004257262,Darkest Green
47,CUYAMACA,-116.5872,32.9897,-0.005069208,No Color
2121,D'LO 2 SW,-89.9328,31.9544,-0.004626857,No Color
2134,DAINGERFIELD 9 S,-94.7225,32.9203,-0.004113033,No Color
1746,DALE ENTERPRISE,-78.9353,38.4547,-0.002075151,No Color
2158,DALECARLIA RSVR,-77.1133,38.9386,-0.0035773,No Color
1595,DALHART MUNI AP,-102.55,36.0167,-0.004073708,No Color
299,DALLAS 2 NE,-123.2911,44.9464,-0.00228862,No Color
1449,DALLAS 7 NE,-84.7475,33.9881,-0.008633514,No Color
2361,DALLAS FT WORTH AP,-97.0189,32.8978,-0.007622106,No Color
555,DALLAS LOVE FLD,-96.8556,32.8519,-0.006715696,No Color
1107,DANEVANG 1 W,-96.2319,29.0567,0.001501352,Dark Green
999,DANNEMORA,-73.7206,44.7192,-0.001899269,No Color
2518,DANNER,-117.3389,42.9447,-0.000228898,No Color
1150,DANSVILLE,-77.7175,42.5656,-0.003490177,No Color
2309,DARDANELLE,-93.1675,35.2342,-0.006155709,No Color
1130,DARLINGTON,-90.1064,42.6781,-0.002431191,No Color
740,DARRINGTON RS,-121.6036,48.26,-0.001547453,No Color
795,DAVID CITY,-97.1328,41.2492,0.001010243,Dark Green
9,DAVIS 2 WSW EXP FARM,-121.7761,38.535,-0.007643084,No Color
1779,DAYTON-MCD,-84.1911,39.7633,-0.004112098,No Color
180,DAYTON 1 WSW,-118.0022,46.3153,-0.000649726,No Color
1823,DAYTON 2SE,-84.9947,35.4717,-0.00465449,No Color
1438,DAYTON INTL AP,-84.2186,39.9061,-0.001809393,No Color
2677,DAYTONA BEACH,-81.0083,29.1967,-0.011764715,No Color
362,DAYTONA BEACH INTL AP,-81.0483,29.1828,-0.006080094,No Color
2244,DE RIDDER,-93.2869,30.8428,-0.008539711,No Color
435,DE SABLA,-121.6108,39.8717,-0.006812129,No Color
2481,DE SMET,-97.5606,44.3867,-0.003227762,No Color
902,DEARBORN,-83.2378,42.3194,-0.001012086,No Color
1421,DEAVER,-108.5931,44.8919,-0.00428329,No Color
2253,DECATUR WTP,-88.9506,39.8289,-0.004161955,No Color
1895,DECORAH,-91.7953,43.3042,-0.004655893,No Color
110,DEER CREEK DAM,-111.5289,40.4044,-0.002158427,No Color
1276,DEER FLAT DAM,-116.7475,43.5764,-0.004939472,No Color
1436,DEER LODGE 3 W,-112.7975,46.3911,0.000120952,No Color
2274,DEFIANCE,-84.3847,41.2783,-0.006754559,No Color
165,DEL NORTE 3ENE,-106.3083,37.6908,0.005164475,Darkest Green
1091,DEL RIO INTL AP,-100.9269,29.3783,-0.00924327,No Color
345,DELAND 1 SSE,-81.3106,29.0181,-0.004912846,No Color
837,DELTA,-112.5858,39.3375,-0.002075199,No Color
2265,DEMOPOLIS L&D,-87.88,32.5192,-0.003506541,No Color
532,DENIO,-118.6339,41.9892,-0.00169893,No Color
721,DENISON,-95.3289,42.0364,-0.000610445,No Color
1207,DENISON DAM,-96.5667,33.8167,-0.000142117,No Color
2113,DENTON 2 SE,-97.105,33.1992,-0.00348254,No Color
1613,DENVER-STAPLETON,-104.8694,39.7633,-0.005334471,No Color
1996,DEQUEEN,-94.3481,34.0464,-0.003351399,No Color
2173,DES ARC,-91.4978,34.9772,-0.002030117,No Color
1565,DES MOINES INTL AP,-93.6531,41.5339,-0.004478429,No Color
911,DESERET,-112.6519,39.2872,-0.004096318,No Color
2096,DESERT NWR,-115.36,36.4381,-0.004434691,No Color
2522,DESERT RESORTS RGNL AP,-116.1594,33.6267,-0.001326509,No Color
745,DETOUR VILLAGE,-83.9014,45.9983,-0.00441782,No Color
958,DETROIT CITY AP,-83.01,42.4092,-0.003980049,No Color
1255,DETROIT DAM,-122.2547,44.7242,0.001735566,Dark Green
1770,DETROIT LAKES 1 NNE,-95.8372,46.8372,-0.008107044,No Color
845,DETROIT METRO AP,-83.3308,42.2314,-0.008389114,No Color
2691,DETROIT WILLOW RUN AP,-83.5333,42.2333,-0.009824708,No Color
2024,DEVILS GARDEN,-81.1292,26.6033,-0.008877505,No Color
793,DEVILS LAKE KDLR,-98.8681,48.1069,-0.001276917,No Color
863,DEVILS TWR #2,-104.7147,44.5833,-0.004984843,No Color
27,DIABLO DAM,-121.1431,48.7142,-0.000253279,No Color
1588,DICKSON,-87.3958,36.075,0.000792886,Dark Green
1104,DILIA,-105.0569,35.1842,-0.00225809,No Color
796,DILLINGER,-105.1175,44.0992,-0.004520003,No Color
269,DILLION U OF MONTANA WESTERN,-112.6447,45.2128,-0.000919188,No Color
714,DILLON,-79.3564,34.4092,-0.006244926,No Color
967,DILLON 1 E,-106.0353,39.6261,-0.004177116,No Color
190,DILLON AP,-112.5545,45.2575,-0.002066587,No Color
170,DINOSAUR QUARRY AREA,-109.3045,40.4378,-0.005216096,No Color
618,DODGE,-91.5511,44.1331,-0.005984356,No Color
1814,DODGE CITY,-99.9683,37.7608,-0.000767949,No Color
1439,DODGEVILLE,-90.1161,42.9608,-0.000542022,No Color
883,DONALDSONVILLE 4 SW,-91.0278,30.0719,0.00424661,Darkest Green
1034,DONEGAL 2 NW,-79.4058,40.1275,-0.005622768,No Color
2122,DONIPHAN,-90.8125,36.6206,-0.003023567,No Color
384,DONNER MEM SP,-120.2331,39.3239,-0.005808526,No Color
934,DONORA 1 SW,-79.8694,40.1636,-0.002342968,No Color
595,DORENA,-122.9631,43.7822,-0.006247963,No Color
825,DORSET,-80.6667,41.6833,-0.007046938,No Color
1191,DOS BOCAS,-66.6667,18.3361,-0.00049656,No Color
2186,DOUGLAS,-82.8206,31.4889,-0.007808484,No Color
2710,DOUGLAS 1 SE,-105.3603,42.7467,-0.001907585,No Color
2081,DOUGLAS BISBEE INL AP,-109.6061,31.4583,-0.010966287,No Color
2157,DOVER 1 W,-87.8628,36.4819,-0.006786359,No Color
807,DOWAGIAC 1 W,-86.1319,41.9856,-0.000317775,No Color
992,DOWNSVILLE DAM,-74.9825,42.0769,-0.004779933,No Color
818,DOYLE 4 SSE,-120.0828,39.9717,-0.002764937,No Color
330,DRAIN,-123.3275,43.6656,-0.007920623,No Color
1825,DRESDEN,-88.7064,36.2836,-0.004535478,No Color
802,DRIGGS,-111.1125,43.7306,-0.001229824,No Color
1027,DU QUOIN 4 SE,-89.1931,37.9878,-0.002842494,No Color
1285,DUBOIS EXP STN,-112.2006,44.2436,-0.005980526,No Color
1976,DUBOIS S IN FORAGE FM,-86.6983,38.4558,-0.005535888,No Color
1501,DUBUQUE L&D 11,-90.6461,42.54,-0.001941282,No Color
1112,DUBUQUE RGNL AP,-90.7036,42.3978,-0.002139023,No Color
2620,DUCHESNE,-110.395,40.1678,-0.001158409,No Color
731,DUFUR,-121.1303,45.4539,-0.007796861,No Color
1257,DUGWAY,-112.9217,40.1839,-0.000616655,No Color
1970,DULCE,-107,36.9358,-0.011172979,No Color
2604,DULL CTR 1SE,-104.9614,43.4117,-0.004758593,No Color
716,DULUTH,-92.2097,46.8369,-0.007426323,No Color
1388,DUMAS,-101.9725,35.8731,0.000160902,No Color
13,DUNKIRK 19NNE,-111.4747,48.7167,-0.000362202,No Color
829,DUNN CENTER 1E,-102.5869,47.3467,-0.003134594,No Color
550,DUPREE,-101.605,45.0469,-0.003799883,No Color
1683,DURHAM,-78.9625,36.0425,-0.000957565,No Color
2704,DUTCH HARBOR,-166.5433,53.895,-0.008303185,No Color
377,DYER,-118.0106,37.615,-0.006412729,No Color
2275,DYERSBURG III GOLF,-89.41,36.0003,-0.001142827,No Color
1652,EADS,-102.7769,38.4758,-0.003588739,No Color
33,EAGLE,-141.2036,64.7856,-0.001284608,No Color
191,EAGLE FAA AP,-106.9167,39.65,-0.006805645,No Color
5,EAGLE MTN,-115.4508,33.8089,8.81E-05,No Color
1505,EAGLE PASS 3N,-100.4792,28.7569,-0.00476947,No Color
420,EAST JORDAN,-85.1322,45.1519,-0.008816815,No Color
1181,EAST TAWAS,-83.5036,44.2839,-0.006282679,No Color
1241,EAST WAREHAM,-70.6697,41.7653,-0.009429843,No Color
1878,EASTMAN 1 W,-83.2058,32.2003,-0.005861133,No Color
1002,EASTPORT,-66.9919,44.9067,-0.005657349,No Color
1521,EATON,-84.6336,39.7347,-0.007041877,No Color
1457,EAU CLAIRE 4 NE,-86.2408,42.0147,-0.00707016,No Color
678,EAU CLAIRE RGNL AP,-91.4878,44.8664,-0.004689571,No Color
235,ECHO DAM,-111.435,40.9656,-0.002611022,No Color
1092,EDEN,-99.8494,31.2208,0.002383461,Darkest Green
1592,EDENTON,-76.5517,36.0164,-0.001813168,No Color
322,EDGARTOWN,-70.5181,41.3853,-0.009410971,No Color
2656,EDGELEY 3WNW,-98.7661,46.3694,0.000498741,Dark Green
2279,EDISTO BEACH STATE PARK,-80.2947,32.505,-0.010260626,No Color
2111,EDMORE 1NW,-98.4714,48.4239,-1.78E-05,No Color
2262,EFFINGHAM 3SW,-88.6244,39.1181,-0.001536574,No Color
1442,EKALAKA,-104.5461,45.8903,-0.002730588,No Color
484,EL CAPITAN DAM,-116.8164,32.8839,0.000584095,Dark Green
246,EL CENTRO 2 SSW,-115.5617,32.7669,-0.007471509,No Color
2440,EL DORADO,-96.8444,37.8183,-0.00292308,No Color
1953,EL DORADO S AR RGNL AP,-92.8142,33.2208,-0.005585299,No Color
2046,EL MORRO NATL MON,-108.3492,35.0381,-0.002023408,No Color
2077,EL PASO INTL AP,-106.3758,31.8111,-0.009598253,No Color
2060,EL VADO DAM,-106.73,36.5928,-0.006323407,No Color
737,ELBERTON 2 N,-82.855,34.1406,0.000509458,Dark Green
2433,ELDON,-92.5808,38.3486,-0.001884345,No Color
701,ELDORA,-93.0989,42.3619,-0.001082761,No Color
1956,ELIDA,-103.6572,33.9403,-0.007579961,No Color
1773,ELIZABETH CITY,-76.205,36.3097,-0.006967736,No Color
392,ELIZABETH CITY CGAS,-76.175,36.2606,-0.006469046,No Color
376,ELIZABETHTOWN 3 SW,-78.6481,34.6044,-0.00460588,No Color
1331,ELK CITY 1NE,-115.4611,45.8356,-0.003765167,No Color
945,ELK MTN,-106.4136,41.6878,-0.00686466,No Color
1391,ELKADER 6 SSW,-91.4536,42.7753,0.000672834,Dark Green
1842,ELKHART,-101.8867,37.0058,-0.002160713,No Color
2192,ELKINS RANDOLPH CO AP,-79.8528,38.8853,-0.007656477,No Color
77,ELKO RGNL AP,-115.7886,40.8289,-0.001332652,No Color
1444,ELLENDALE,-98.5261,46.0108,-0.000544713,No Color
237,ELLENSBURG,-120.54,46.9692,-0.004008223,No Color
1705,ELLSWORTH 1 E,-92.4586,44.7303,-0.001815179,No Color
727,ELMA,-123.4008,47.0092,-0.003319897,No Color
2164,ELMIRA,-76.8358,42.0997,-0.00579033,No Color
904,ELSBERRY 1 S,-90.7847,39.1506,-0.007149537,No Color
220,ELSINORE,-117.3319,33.6692,-0.00823505,No Color
559,ELWHA RS,-123.5906,48.0164,-0.000445223,No Color
1750,ELWOOD,-85.8453,40.2872,-0.006460947,No Color
203,ELY YELLAND FLD AP,-114.8467,39.2953,-0.004574675,No Color
896,ELYRIA 3 E,-82.0558,41.3814,-0.008859324,No Color
1317,EMBLEM,-108.3906,44.4972,-0.005819179,No Color
632,EMMETSBURG,-94.6833,43.1025,-0.002088036,No Color
1264,EMMETT 2 E,-116.4664,43.8544,-0.001778493,No Color
1215,EMMITSBURG 2 SE,-77.2914,39.6811,-0.003681418,No Color
2430,EMPORIA MUNI AP,-96.1897,38.3306,-0.004702935,No Color
2447,ENCINAL,-99.3847,27.9775,-0.008665226,No Color
938,ENDERLIN 2W,-97.6383,46.6167,-0.007047427,No Color
2106,ENDERS LAKE,-101.5147,40.4181,-0.002935388,No Color
2378,ENID,-97.8747,36.4194,-0.002969658,No Color
2617,ENKA,-82.6531,35.5406,-0.006234561,No Color
337,ENNIS,-111.7111,45.3394,-0.003244947,No Color
801,ENOSBURG FALLS,-72.8083,44.9094,-0.007629833,No Color
1353,EPHRAIM,-111.5992,39.3583,-0.003329347,No Color
460,EPHRATA MUNI AP,-119.5153,47.3078,-0.001430014,No Color
865,ERIE INTL AP,-80.1825,42.08,-0.009648754,No Color
557,ESCALANTE,-111.5978,37.7686,-0.010532408,No Color
631,ESKRIDGE,-96.1058,38.8592,0.004055868,Darkest Green
332,ESTACADA 2 SE,-122.3186,45.2689,-0.004286543,No Color
1003,ESTANCIA 4N,-106.0344,34.8242,0.00089306,Dark Green
626,ESTHERVILLE 4E,-94.7472,43.4036,-0.002128932,No Color
438,EUGENE MAHLON SWEET AP,-123.2206,44.1278,-0.000352603,No Color
2569,EUPORA 2 E,-89.2358,33.5628,-0.001068351,No Color
2373,EUREKA 1E,-96.2644,37.8253,0.001506463,Dark Green
1469,EUREKA WFO WOODLEY ISLAND,-124.1603,40.8097,-0.003527713,No Color
80,EVANSTON 1 E,-110.9508,41.265,-0.00417261,No Color
1797,EVANSVILLE MUSEUM,-87.5783,37.9647,-0.008193236,No Color
1375,EVANSVILLE REGIONAL AP,-87.5206,38.0442,-0.004219665,No Color
2573,EVENING SHADE 1 NNE,-91.6169,36.0717,-0.002903885,No Color
131,EVERETT,-122.195,47.9753,-0.006492777,No Color
371,EVERGLADES,-81.3897,25.8489,-0.006688372,No Color
1693,EWING,-98.3417,42.2611,-0.002952996,No Color
127,FAIRBANKS INTL AP,-147.8761,64.8039,-0.001827658,No Color
1416,FAIRBURY 5S,-97.1669,40.0739,-0.001856618,No Color
864,FAIRFIELD,-112.0944,40.2703,0.001489699,Dark Green
1963,FAIRFIELD RADIO WFIW,-88.3264,38.3806,-0.002965828,No Color
2258,FAIRHOPE 2 NE,-87.8808,30.5467,-0.002787392,No Color
2159,FAIRMONT,-80.1333,39.4667,-0.00556295,No Color
2549,FALFURRIAS,-98.1203,27.1353,-0.006298227,No Color
601,FALLON EXP STN,-118.7811,39.4572,-0.003449281,No Color
2075,FALLON NAAS,-118.7167,39.4167,-0.001062393,No Color
2706,FALLS CITY 2 SSW,-123.4525,44.8358,0.021875874,Darkest Green
1364,FALLS CITY BRENNER FLD,-95.5919,40.0803,0.000873881,Dark Green
765,FALLS VILLAGE,-73.3667,41.95,-0.004729429,No Color
1090,FARGO HECTOR INTL AP,-96.8111,46.9253,-0.005291692,No Color
2661,FARMINGTON RGNL AP,-108.2292,36.7436,-0.004377907,No Color
1791,FARMLAND 5 NNW,-85.1483,40.2539,-0.006246203,No Color
1591,FARMVILLE 2 N,-78.3864,37.3264,-0.003729641,No Color
53,FARSON 5N,-109.4453,42.1867,0.002808929,Darkest Green
2486,FAULKTON 1 NW,-99.1342,45.0364,0.000365325,No Color
2133,FAYETTEVILLE DRAKE FLD,-94.1694,36.0097,-0.003371695,No Color
2203,FAYETTEVILLE EXP STN,-94.1744,36.1006,-0.003610004,No Color
1977,FAYETTEVILLE PWC,-78.8583,35.0583,-0.006837851,No Color
1802,FAYETTEVILLE WTP,-86.5411,35.15,-0.010232171,No Color
2087,FEDERAL POINT,-81.5389,29.755,-0.001758171,No Color
150,FENN RS,-115.5356,46.0931,-0.003707091,No Color
1498,FERGUS FALLS,-96.1172,46.2919,-0.003657264,No Color
485,FERN RIDGE-VENETA,-123.3703,44.0494,-0.000760411,No Color
819,FERNANDINA BEACH,-81.4525,30.6669,-0.004292861,No Color
293,FERRON,-111.1325,39.0875,-0.007408548,No Color
1323,FILLMORE,-112.3278,38.9664,-0.003599666,No Color
803,FINDLAY AP,-83.6686,41.0136,-0.005708256,No Color
2166,FINDLAY WPCC,-83.6622,41.0461,-0.010183628,No Color
969,FIRST CONNECTICUT LAKE,-71.2906,45.09,-0.005176167,No Color
370,FIVE POINTS 5 SSW,-120.1561,36.3642,-0.009192344,No Color
510,FLAGLER 1S,-103.0614,39.2814,-0.002773601,No Color
374,FLAGSTAFF PULLIAM AP,-111.6664,35.1442,-0.005367574,No Color
314,FLAMING GORGE,-109.4117,40.9317,-0.005592959,No Color
772,FLANDREAU,-96.5928,44.0517,-0.002693414,No Color
2357,FLATONIA 4SE,-97.0644,29.6339,-0.004109053,No Color
906,FLATWILLOW 4 ENE,-108.3133,46.8511,-0.006280176,No Color
1262,FLEMINGTON 5 NNW,-74.8831,40.5631,-0.00761739,No Color
2195,FLETCHER 3 W,-82.5575,35.4267,-0.003325491,No Color
834,FLINT BISHOP INTL AP,-83.7494,42.9667,-0.005614564,No Color
2256,FLORENCE 8 NE,-79.74,34.2933,-0.004638606,No Color
1946,FLORENCE RGNL AP,-79.7239,34.1853,-0.003723222,No Color
2429,FLOYDADA,-101.3339,33.985,-0.006896132,No Color
2577,FOLKSTON 9 SW,-82.1278,30.74,-0.009259321,No Color
1018,FOLLETT,-100.1369,36.4328,-0.001006354,No Color
1529,FOND DU LAC,-88.4533,43.7953,-0.002502385,No Color
2241,FORD CITY 4 S DAM,-79.5144,40.7131,-0.00767961,No Color
2649,FORDYCE,-92.3989,33.8228,0.001195078,Dark Green
1399,FOREST CITY 2 NNE,-93.6306,43.2844,-0.002013762,No Color
257,FOREST GROVE,-123.1025,45.5247,-0.001029233,No Color
1727,FOREST LAKE 5NE,-92.9125,45.3397,-0.005590246,No Color
610,FORESTBURG 4 NNE,-98.0833,44.0686,-0.002553686,No Color
774,FORKS 1 E,-124.3539,47.9558,-0.002578525,No Color
768,FORMAN 5 SSE,-97.595,46.0333,-0.002847283,No Color
333,FOSSIL,-120.2175,44.9983,-0.007819878,No Color
1045,FOWLERTON,NA,NA,0.00237404,Darkest Green
646,FOXHOLM 7 N,-101.5697,48.4583,3.04E-05,No Color
1155,FRANKFORT 2NE,-86.21,44.6481,-0.006830002,No Color
1379,FRANKFORT DISPOSAL PLT,-86.5067,40.2986,-0.005797578,No Color
1053,FRANKLIN 3 NW,-91.5442,29.8233,-0.003184804,No Color
1809,FRANKLIN SEWAGE PLT,-86.8686,35.9417,-0.002540022,No Color
981,FRANKLINVILLE,-78.4633,42.3297,-0.006610314,No Color
1513,FREDERICKSBURG,-98.9089,30.2392,-0.005381346,No Color
1014,FREEDOM,-99.1128,36.7647,0.004192121,Darkest Green
1228,FREEHOLD-MARLBORO,-74.2511,40.3142,-0.006820686,No Color
1932,FREEPORT 2 NW,-95.3808,28.9844,-0.007867144,No Color
2128,FREMONT,-83.1189,41.3331,-0.006507879,No Color
113,FRESNO YOSEMITE INTL AP,-119.7194,36.78,-0.010209744,No Color
204,FRIANT GOVERNMENT CAMP,-119.7072,36.9969,-0.007606199,No Color
1890,FT ASSINNIBOINE,-109.8014,48.4983,-0.000973728,No Color
1459,FT ATKINSON,-88.8589,42.905,-0.002761236,No Color
929,FT BENTON,-110.6608,47.8306,-0.001921004,No Color
1261,FT BIDWELL,-120.1575,41.8714,-0.002808108,No Color
1812,FT BRAGG 5 N,-123.7567,39.5092,0.000919005,Dark Green
317,FT COLLINS,-105.1314,40.6147,-0.008653342,No Color
612,FT DODGE 5NNW,-94.2006,42.5836,0.002411616,Darkest Green
1989,FT DUCHESNE,-109.8611,40.2842,-0.011564007,No Color
2466,FT GIBSON DAM,-95.2333,35.8667,-0.007553944,No Color
1311,FT HALL 1 NNE,-112.4133,43.0428,0.002120746,Darkest Green
994,FT KENT,-68.6136,47.2386,-0.002119675,No Color
478,FT LAUDERDALE,-80.2011,26.1019,-0.005340563,No Color
1350,FT LEWIS,-108.0514,37.2308,-0.002710583,No Color
1828,FT MADISON,-91.3339,40.6222,-0.005571064,No Color
1410,FT MEADE,-103.4775,44.41,-0.003202694,No Color
454,FT MORGAN,-103.8156,40.26,-0.001849473,No Color
331,FT MYERS PAGE FLD AP,-81.8614,26.585,-0.005306535,No Color
757,FT PECK PWR PLT,-106.4117,48.0119,-0.003558915,No Color
2182,FT PIERCE,-80.3508,27.4419,-0.004107544,No Color
1597,FT ROBINSON,-103.4617,42.6656,-0.00366093,No Color
2382,FT SCOTT,-94.7086,37.8428,0.001907832,Darkest Green
2117,FT SMITH RGNL AP,-94.3625,35.3331,-0.008251914,No Color
1186,FT STOCKTON,-102.9153,30.9072,-0.010795767,No Color
596,FT VALLEY,-111.7428,35.2681,-0.004969775,No Color
946,FT WAYNE INTL AP,-85.2064,40.9706,-0.004857504,No Color
2654,FT WORTH NAS,-97.45,32.7667,-0.006143412,No Color
770,FULLERTON 1 ESE,-98.4,46.1581,-0.001164229,No Color
2295,FULTON 3 W,-88.4569,34.2614,-0.003682742,No Color
1799,FULTON L&D #13,-90.1544,41.8978,-0.00030079,No Color
2245,GADSDEN,-85.9878,34.0219,-0.009849346,No Color
2004,GAGE AP,-99.7689,36.2967,-0.002488986,No Color
2286,GAINESVILLE LOCK,-88.1342,32.8347,-0.003239279,No Color
2148,GALAX RADIO WBRF,-80.9139,36.6633,-0.001939727,No Color
1547,GALLIPOLIS,-82.1822,38.8203,-0.004536732,No Color
2385,GANADO,-109.5661,35.7164,-0.006755719,No Color
1361,GARDEN CITY EXP STA,-100.8122,37.9931,-0.005512315,No Color
1234,GARDEN CITY RGNL AP,-100.7247,37.9272,-0.001944164,No Color
24,GARDEN VALLEY,-115.9694,44.1011,-0.001937277,No Color
2463,GARNETT 1 E,-95.2178,38.28,-0.0005429,No Color
2072,GASCON,-105.4481,35.8917,-0.004200373,No Color
2200,GASSAWAY,-80.7672,38.665,-0.002969318,No Color
2124,GASTONIA,-81.1433,35.2656,-0.005523991,No Color
970,GATE,-100.0569,36.85,-0.000709175,No Color
2439,GATESVILLE,-97.7019,31.4144,-0.004320843,No Color
2074,GATEWAY,-108.9722,38.6825,-0.006252438,No Color
2183,GATLINBURG 2 SW,-83.5369,35.6878,-0.003324136,No Color
684,GAYLORD,-94.2208,44.5564,-0.00187223,No Color
1608,GENEVA,-97.5964,40.5314,-0.003250725,No Color
1630,GENOA 2 W,-97.7644,41.4514,-0.005126696,No Color
1479,GENOA DAM 8,-91.2294,43.5706,-0.005506751,No Color
2650,GERLACH,-119.3514,40.655,-0.005046883,No Color
1487,GERMANTOWN,-88.1222,43.2389,-0.004295965,No Color
832,GETTYSBURG,-99.9403,45.0194,-0.001014378,No Color
1839,GIBSON DAM,-112.7536,47.6017,0.001472342,Dark Green
193,GILA BEND,-112.7131,32.9481,-0.009964478,No Color
287,GILA HOT SPRINGS,-108.2075,33.1975,-0.003965613,No Color
1338,GILBERT,-92.7147,35.9914,-0.003445337,No Color
1909,GILDFORD,-110.3022,48.5653,-0.000709671,No Color
1564,GILLETTE 4SE,-105.4919,44.2644,-0.003189005,No Color
2105,GLAD VALLEY 2 W,-101.81,45.4178,-0.001538634,No Color
1169,GLADWIN,-84.4908,43.9758,-0.003307109,No Color
2702,GLASGOW #2,-106.6383,48.1925,0.008244861,Darkest Green
926,GLASGOW INTL AP,-106.6213,48.2138,-0.003142561,No Color
1654,GLEN ST MARY 1 W,-82.1856,30.2717,-0.001765238,No Color
175,GLENBROOK,-119.9411,39.0753,-0.000399424,No Color
1387,GLENDIVE,-104.7183,47.1064,-0.003045416,No Color
28,GLENNVILLE,-118.7006,35.7269,-0.001573672,No Color
912,GLENNVILLE 3NW,-81.9522,31.9881,-0.004767124,No Color
1377,GLENROCK 5 ESE,-105.7878,42.8267,-0.000167876,No Color
928,GLENS FALLS AP,-73.6167,43.35,-0.003589924,No Color
1193,GLENS FALLS FARM,-73.6781,43.3247,-0.003692522,No Color
1994,GLENVILLE,-80.8325,38.9339,-0.009174295,No Color
2666,GLENWOOD 2 WNW,-95.4392,45.6583,-0.00251371,No Color
1955,GLENWOOD SPGS #2,-107.3172,39.5181,-0.008038257,No Color
2489,GOLD BEACH RS,-124.4242,42.4036,-0.002847803,No Color
1865,GOLDBUTTE 7 N,-111.3994,48.9761,-0.002409887,No Color
2636,GOLDENDALE,-120.8428,45.8081,-0.002429334,No Color
2323,GOLIAD,-97.385,28.6617,-0.005918066,No Color
1586,GOODLAND,-101.7,39.3669,-0.004931418,No Color
2002,GOODWELL RSCH STN,-101.6181,36.5914,-0.00361184,No Color
1515,GORDON,-91.8047,46.245,-0.003808139,No Color
2637,GORDON 6N,-102.2036,42.8947,-0.004545466,No Color
1372,GOSHEN 3SW,-85.8825,41.5575,-0.005458726,No Color
1583,GOTHENBURG,-100.1514,40.9394,-0.002289372,No Color
809,GOUVERNEUR 3 NW,-75.5122,44.3539,-0.000655339,No Color
568,GOVERNMENT CAMP,-121.7417,45.3014,-0.003677802,No Color
493,GRACE,-111.7275,42.5872,-0.004163333,No Color
2416,GRAHAM,-98.5669,33.1203,-0.002772987,No Color
2578,GRAN QUIVIRA NATL MON,-106.0931,34.2594,-0.007452918,No Color
2091,GRAND COTEAU,-92.0442,30.4183,-0.00513773,No Color
627,GRAND FORKS INTL AP,-97.1839,47.9428,-0.004193164,No Color
1648,GRAND FORKS UNIV NWS,-97.0981,47.9217,-0.001249777,No Color
1657,GRAND ISLAND AP,-98.3136,40.9611,-0.004071199,No Color
1861,GRAND JUNCTION WALKER FLD,-108.54,39.1342,-0.001040569,No Color
534,GRAND LAKE 1 NW,-105.8322,40.2669,-0.009843768,No Color
842,GRAND LAKE 6 SSW,-105.8667,40.185,-0.006887525,No Color
699,GRAND MEADOW,-92.5644,43.7047,0.000758768,Dark Green
2613,GRAND PORTAGE,-89.6908,47.9711,-0.005122011,No Color
1715,GRAND RPDS FOREST LAB,-93.4975,47.2436,-0.00510567,No Color
1722,GRANDFATHER MTN,-81.8311,36.0956,-0.006975654,No Color
56,GRANGEVILLE,-116.1175,45.9414,-0.006363147,No Color
18,GRANT GROVE,-118.9631,36.7394,-0.004571198,No Color
2073,GRANTS MILAN MUNI AP,-107.8992,35.1664,-0.011277669,No Color
394,GRANTS PASS,-123.3236,42.4244,-0.002538815,No Color
1736,GRANTSBURG,-92.6886,45.7728,-0.006447302,No Color
2125,GRANTSVILLE 1ESE,-81.0844,38.91,-0.002867331,No Color
2547,GRAPEVINE DAM,-97.0553,32.9506,-0.005369375,No Color
512,GRASS RANGE,-108.8031,47.0258,-0.001737857,No Color
101,GRATON,-122.8647,38.4306,-0.004172571,No Color
1401,GRAVETTE,-94.4481,36.4261,-0.005642164,No Color
742,GRAYLAND,NA,NA,-0.003190496,No Color
950,GREAT BEND,-98.7803,38.3758,-0.000187483,No Color
2714,GREAT FALLS 16ST,-111.2781,47.4883,0.018533563,Darkest Green
763,GREAT FALLS INTL AP,-111.3822,47.4733,0.002646105,Darkest Green
1720,GREAT SAND DUNES NM,-105.5119,37.7333,-0.004273124,No Color
2483,GREELEY,-98.5331,41.5461,0.002930852,Darkest Green
1074,GREEN BAY,-88.1111,44.4983,-0.006402025,No Color
488,GREEN RIVER,-109.4703,41.5167,-0.005889695,No Color
1790,GREENCASTLE 1 W,-86.8767,39.6439,0.003383963,Darkest Green
1342,GREENEVILLE EXP STN,-82.8436,36.1056,0.001291051,Dark Green
2303,GREENPORT PWR HOUSE,-72.3731,41.1019,-0.007726527,No Color
1678,GREENSBORO WTP,-79.8047,36.0811,-0.00744106,No Color
1195,GREENVILLE KGVL RADIO,-96.0983,33.1678,-0.008117581,No Color
1524,GREENVILLE WTP,-84.65,40.1,-0.005289866,No Color
565,GREENWOOD LEFLORE AP,-90.0867,33.4964,-0.001278131,No Color
1638,GREGORY,-99.4339,43.2356,-0.001595767,No Color
2290,GRENADA,-89.8136,33.7608,0.000904299,Dark Green
2409,GRENVILLE,-103.6192,36.5939,-0.00507403,No Color
1882,GRIGGSVILLE,-90.7086,39.7378,0.00311505,Darkest Green
1907,GRINNELL 3 SW,-92.7489,41.7203,-0.004093628,No Color
432,GRIZZLY,-120.9389,44.5175,-0.002685794,No Color
1135,GROSSE POINTE FARMS,-82.8892,42.4078,0.001470763,Dark Green
1,GROUSE,-113.5472,43.7186,-0.008299175,No Color
621,GRUNDY CTR,-92.7594,42.3647,-0.004610413,No Color
2500,GUAM INTL AP,144.7961,13.4836,-0.02596349,No Color
2568,GUAYAMA 2E,-66.0875,17.9783,-0.003973772,No Color
1043,GULKANA AP,-145.4589,62.1592,-0.001110763,No Color
1748,GULL LAKE DAM,-94.3608,46.4119,-0.003319438,No Color
1674,GULL LK BIOLOGICAL STN,-85.3828,42.3833,-0.009849639,No Color
86,GUNNISON 3SW,-106.9672,38.5253,-0.001871413,No Color
2553,GUNTERSVILLE,-86.3297,34.3344,-0.004140917,No Color
2597,GURABO SUBSTN,-65.9922,18.2583,-0.009532542,No Color
1192,GUSTAVUS,-135.7089,58.4111,0.003711874,Darkest Green
2363,GUTHRIE 5S,-97.395,35.8161,-0.00113533,No Color
777,GUTHRIE CTR,-94.4972,41.6686,-0.002900927,No Color
1509,GUTTENBERG L&D 10,-91.0958,42.7858,-0.002810926,No Color
2080,HACHITA,-108.3247,31.9175,-0.011748183,No Color
2582,HACKBERRY 8 SSW,-93.4019,29.8894,-0.007048089,No Color
1676,HAIWEE,-117.9528,36.1389,-0.005352658,No Color
875,HALE LOUD DAM,-83.7217,44.4633,-0.005156928,No Color
743,HALEAKALA RS 338,NA,NA,-0.007375005,No Color
2266,HALEYVILLE,-87.6353,34.2314,-0.008067117,No Color
447,HALF MOON BAY,-122.4433,37.4725,-0.000933991,No Color
225,HALFWAY,-117.1094,44.8772,-0.004494339,No Color
2535,HALLETTSVILLE 2 N,-96.9397,29.4706,-0.002159154,No Color
1550,HALLOCK,-96.9406,48.7714,-0.000868139,No Color
2699,HAMBURG,-75.9914,40.5511,-0.008729349,No Color
2468,HAMER 4 NW,-112.2642,43.9664,-0.004712952,No Color
1356,HAMILTON 2W,-94.0347,39.7425,0.001812342,Darkest Green
1873,HAMLET,-79.6922,34.8872,-0.006165731,No Color
1677,HAMLIN,-82.1114,38.2794,-0.007485206,No Color
1218,HAMMONTON 1 NE,-74.8072,39.6442,-0.006835042,No Color
2548,HANA AP 355,-156.0153,20.7947,-0.003265495,No Color
715,HANCOCK EXP FARM,-89.5358,44.1186,-0.002755663,No Color
1536,HANCOCK HOUGHTON CO AP,-88.4889,47.1686,-0.002406064,No Color
188,HANFORD 1 S,-119.6369,36.3158,-0.007628067,No Color
1640,HANNIBAL WTR WKS,-91.3719,39.7233,-0.002501368,No Color
103,HAPPY CAMP RS,NA,NA,0.002210936,Darkest Green
895,HARBOR BEACH 1 SSE,-82.6428,43.8322,-0.001887163,No Color
1447,HARDIN,-107.6092,45.7317,-0.010304063,No Color
2368,HARLAN 1ESE,-95.2875,41.6403,-0.001807251,No Color
1025,HARLINGEN,-97.6728,26.2028,-0.009504657,No Color
553,HARLOWTON,-109.8311,46.4328,-0.002203748,No Color
1352,HARRISBURG,-88.5244,37.7408,0.002610907,Darkest Green
1315,HARRISBURG CPTL CY AP,-76.8514,40.2172,-0.005418701,No Color
2237,HARRISON BOONE CO AP,-93.1567,36.2667,-0.005061746,No Color
511,HART 3 WSW,-86.4239,43.6747,-0.000529,No Color
115,HART MTN REFUGE,-119.6556,42.5483,-0.004453369,No Color
920,HARTFORD 2 W,-88.4114,43.3311,-0.001829253,No Color
806,HARTFORD BRADLEY INTL AP,-72.6825,41.9381,-0.003434572,No Color
1233,HARTFORD BRAINARD FLD,-72.6506,41.7361,-0.008081499,No Color
1153,HARTFORD CITY 4 ESE,-85.2892,40.4356,-0.007352662,No Color
613,HARTINGTON,-97.2608,42.6167,0.000882729,Dark Green
145,HARTLINE,-119.1111,47.6856,-0.001317138,No Color
2190,HARTWELL,-82.93,34.3519,0.005843423,Darkest Green
2380,HASKELL,-99.7456,33.1578,-0.002544385,No Color
2572,HASTINGS 4N,-98.3836,40.6472,-0.001227049,No Color
146,HAT CREEK,-121.5433,40.9317,-0.001679285,No Color
2301,HATTIESBURG 5SW,-89.3392,31.2547,-0.00226756,No Color
62,HATTON 9 SE,NA,NA,-0.007134639,No Color
75,HAUGAN 1 W,-115.4225,47.3889,0.00302261,Darkest Green
1009,HAVERHILL,-71.0603,42.7594,0.001675742,Dark Green
410,HAWAII VOL NP HQ 54,-155.2561,19.4297,-0.004304746,No Color
641,HAWARDEN,-96.485,43.0031,0.000201769,No Color
1906,HAWKINSVILLE,-83.4681,32.2842,-0.00809436,No Color
755,HAWLEY 1 E,-75.1653,41.4764,-0.005086953,No Color
45,HAYDEN,-107.2547,40.4928,-0.007834515,No Color
1662,HAYES CENTER 1NW,-101.0344,40.5233,-0.002397151,No Color
66,HAYFIELD PUMPING PLT,-115.6289,33.7044,-0.004844575,No Color
1324,HAYS 1 S,-99.3358,38.8586,-0.004749747,No Color
2242,HEADLAND,-85.3397,31.3625,-0.002606788,No Color
34,HEADWORKS PORTLAND WTR,-122.1547,45.4486,-0.000890983,No Color
1182,HEALDTON 3 E,-97.4203,34.2333,0.000362785,No Color
524,HEBER BLACK MESA RS,-110.5581,34.3925,-0.004331522,No Color
295,HEBGEN DAM,-111.3392,44.8667,-0.004172244,No Color
1796,HEFLIN,-85.6006,33.6483,-0.00538832,No Color
2033,HELEN,-83.7261,34.6997,-0.006144912,No Color
1017,HELENA 1 SSE,-98.2661,36.5381,-0.003412638,No Color
841,HELENA RGNL AP,-111.9636,46.6056,-0.005918615,No Color
1154,HEMLOCK,-77.6083,42.7742,-0.008557311,No Color
2383,HENDERSON,-94.7964,32.1808,-0.007370541,No Color
1649,HENDERSON 2 NNW,-78.4119,36.3481,-0.003286635,No Color
2292,HENDERSON 8 SSW,-87.6456,37.7558,-0.003036605,No Color
1998,HENDERSONVILLE 1 NE,-82.4492,35.3297,-0.007089573,No Color
230,HENSHAW DAM,-116.7614,33.2372,-0.000813896,No Color
408,HEPPNER,-119.5639,45.3653,-0.004672131,No Color
2395,HEREFORD,-102.4003,34.8172,-0.006099971,No Color
1006,HERINGTON,-96.9494,38.6656,-0.000574542,No Color
558,HERMISTON 1 SE,-119.2636,45.8289,-0.005410189,No Color
2,HERMIT 7 ESE,-107.1097,37.7717,-0.00781727,No Color
2212,HERNANDO,-90.0103,34.8039,-0.005512912,No Color
886,HERON 2 NW,-116.0014,48.08,-0.004298424,No Color
474,HESPERIA 4 WNW,-86.1056,43.5908,-0.004241211,No Color
352,HIALEAH,-80.2858,25.8175,-0.005406331,No Color
528,HICKORY FAA AP,-81.3819,35.7425,-0.006420487,No Color
1423,HICKORY FLAT,-89.1911,34.6189,0.000687572,Dark Green
1776,HIGH POINT,-79.9722,35.9672,-0.003664252,No Color
1149,HIGH SPRINGS,-82.5972,29.8286,0.000944893,Dark Green
2524,HIGHLANDS,-83.1983,35.0567,0.004654983,Darkest Green
1688,HIGHMORE 1 W,-99.455,44.5222,-0.000142343,No Color
1221,HIGHTSTOWN 2 W,-74.5642,40.265,-0.005172051,No Color
1593,HILL CITY MUNI AP,-99.8297,39.3756,-0.0045436,No Color
648,HILLSBORO 3 N,-97.0664,47.4389,-0.002935245,No Color
915,HILLSDALE,-84.6411,41.9353,-0.006909467,No Color
813,HILO INTL AP,-155.0531,19.7192,0.001739668,Dark Green
143,HIRAM,-81.0133,41.3072,0.001632298,Dark Green
2369,HOBART MUNI AP,-99.0525,34.9894,-0.004162173,No Color
2426,HOBBS,-103.1314,32.7264,-0.00285808,No Color
1755,HOGSETT R.C. BYRD DAM,-82.1836,38.6844,-0.007378655,No Color
656,HOLCOMBE,-91.1269,45.2236,0.001544999,Dark Green
1559,HOLDREGE,-99.3803,40.4517,0.000389321,No Color
1971,HOLLAND 1 E,-76.7683,36.6831,-0.004172772,No Color
870,HOLLAND WTP,-86.205,42.7989,-0.007759592,No Color
1253,HOLLY,-102.1317,38.0517,-0.003378014,No Color
2109,HOLTER DAM,-112.0122,46.9914,-0.001445154,No Color
2372,HOLTON,-95.755,39.4578,-0.002442995,No Color
1959,HOMER 1N,-93.0625,32.81,-0.001870785,No Color
8,HOMER AP,-151.4908,59.6419,-0.004288284,No Color
2257,HOMERVILLE 5 N,-82.8003,31.0767,0.00262744,Darkest Green
2655,HONDO,-99.1383,29.3364,-0.004991901,No Color
891,HONOLULU INTL AP,-157.9294,21.3239,-0.007964665,No Color
214,HOOD RIVER EXP STN,-121.5175,45.6847,-0.003591237,No Color
1247,HOOKER,-101.2103,36.865,-0.004050064,No Color
1942,HOOPESTON,-87.685,40.4664,-0.003971315,No Color
2135,HOPE 3 NE,-93.5561,33.7089,-0.004907545,No Color
1855,HOPKINSVILLE,-87.5206,36.8492,-0.005730617,No Color
1476,HOQUIAM BOWERMAN AP,-123.9303,46.9728,-0.001562622,No Color
2436,HORDS CREEK DAM,-99.5606,31.8456,-0.000904653,No Color
1298,HORTON,-95.52,39.6678,0.000976649,Dark Green
1629,HOT SPRINGS,-79.8317,37.9969,-0.003987231,No Color
2330,HOT SPRINGS 1 NNE,-93.0486,34.5128,0.000149758,No Color
576,HOUGHTON LAKE 6 WSW,-84.8922,44.3119,-0.002875987,No Color
1024,HOULTON INTL AP,-67.7928,46.1236,-0.003758739,No Color
1081,HOUMA,-90.8161,29.6408,-0.007541113,No Color
1048,HOUSTON HOBBY AP,-95.2819,29.6381,-0.00754108,No Color
1974,HOVENWEEP NM,-109.075,37.3858,-0.005866841,No Color
1668,HOWARD,-97.5242,44.0122,-0.002382981,No Color
1768,HOXIE,-100.4397,39.3533,0.002030526,Darkest Green
1231,HUDSON COR.FACILITY,-73.8,42.25,-0.008219142,No Color
2101,HUGOTON,-101.34,37.1639,0.001257887,Dark Green
1138,HULAH DAM,-96.1,36.9167,-0.0035662,No Color
2659,HULETT,-104.6028,44.6856,-0.000827117,No Color
536,HUNGRY HORSE DAM,-114.0217,48.3425,-0.000770478,No Color
236,HUNTINGTON,-117.255,44.3564,-0.000102099,No Color
340,HUNTLEY EXP STN,-108.2444,45.9228,-0.004808064,No Color
1714,HUNTSVILLE INTL AP,-86.7861,34.6439,-0.004708574,No Color
1131,HURON RGNL AP,-98.2231,44.3981,-0.004061348,No Color
1519,HUTCHINSON 10 SW,-98.0297,37.9311,0.00028118,No Color
1827,HYSHAM,-107.2278,46.2942,-0.005183957,No Color
750,HYSHAM 25 SSE,-107.1375,45.9353,-0.005755907,No Color
2541,IBAPAH,-113.9886,40.0378,-0.005558292,No Color
14,ICE HARBOR DAM,-118.8786,46.2447,-0.000439937,No Color
2038,IDABEL,-94.8278,33.9336,0.001716678,Dark Green
21,IDAHO CITY,-115.8319,43.8383,0.002741338,Darkest Green
1288,IDAHO FALLS - KIFI,-112.0125,43.5139,-0.004609811,No Color
1408,IDAHO FALLS 46 W,-112.9422,43.5317,-0.005480686,No Color
1318,IDAHO FALLS FANNING FLD,-112.0672,43.5164,-0.004342758,No Color
151,IDYLLWILD FIRE DEPT,-116.7067,33.7572,-0.008331892,No Color
409,ILIAMNA AP,-154.9089,59.7494,-0.002217106,No Color
243,IMLAY,-118.1631,40.6564,0.00245167,Darkest Green
422,IMPERIAL BEACH REAM FLD NAS,-117.1167,32.5667,-0.002325613,No Color
2647,IMPERIAL MUNI AP,-101.62,40.51,-0.007786055,No Color
2287,INDEPENDENCE 1W,-89.8214,34.6989,-0.002768606,No Color
1535,INDIAN LAKE 2SW,-74.2692,43.755,-0.006448497,No Color
1205,INDIAN MILLS 2 W,-74.7883,39.8144,-0.010492202,No Color
1578,INDIANA 3 SE,-79.1186,40.5972,-0.006974373,No Color
1355,INDIANAPOLIS,-86.2803,39.7075,-0.005350395,No Color
1819,INDIANAPOLIS SE SIDE,-86.0678,39.7164,0.000442424,Dark Green
1424,INDIANOLA 2W,-93.6481,41.3656,0.001170126,Dark Green
2061,INDIO FIRE STN,-116.2153,33.7086,-0.0105296,No Color
844,INGOMAR 14 NE,-107.2078,46.7392,-0.00269563,No Color
942,INTERIOR 3 NE,-101.9414,43.7483,-0.003165752,No Color
1111,INTL FALLS INTL AP,-93.3981,48.5614,-0.001609913,No Color
1216,INVERNESS 3 SE,-82.3125,28.8028,0.002763863,Darkest Green
2381,IOLA 1 W,-95.4242,37.9233,0.002833428,Darkest Green
1765,IONIA 2SSW,-85.0778,42.9531,-0.00457965,No Color
1451,IOWA CITY,-91.505,41.6092,-0.004548367,No Color
629,IOWA FALLS,-93.2536,42.5189,-0.001793237,No Color
630,IPSWICH,-99.0383,45.4478,-0.000707435,No Color
712,IRON MT KINGSFORD WWTP,-88.0842,45.7858,-0.004955388,No Color
233,IRON MTN,-115.1219,34.1472,-0.006586924,No Color
1075,IRONWOOD,-90.1892,46.4656,-0.002434782,No Color
2066,ISABELA SUBSTN,-67.0525,18.4653,-0.012709535,No Color
702,ITASCA UNIV OF MINN,-95.1919,47.2256,-0.002230297,No Color
978,ITHACA CORNELL UNIV,-76.4492,42.4492,-0.00550941,No Color
972,JACKMAN,-70.2583,45.6275,-0.003850479,No Color
1306,JACKSBORO,-98.1561,33.2206,0.001309857,Dark Green
1675,JACKSON 3 NW,-82.7078,39.08,-0.007008927,No Color
2225,JACKSON EXP STN,-88.8456,35.6214,-0.007360387,No Color
1924,JACKSON MCKELLAR AP,-88.9167,35.5931,-0.001008622,No Color
1707,JACKSON REYNOLDS FLD,-84.4667,42.2667,-0.002099071,No Color
1991,JACKSON SPRINGS 5 WNW,-79.6772,35.1858,-0.003745619,No Color
2036,JACKSONVILLE,-81.7019,30.4844,-0.000367144,No Color
876,JACKSONVILLE 2E,-90.2153,39.7353,-0.001979123,No Color
364,JACKSONVILLE BEACH,-81.3928,30.2875,-0.005534656,No Color
481,JACKSONVILLE NAS,-81.6667,30.2333,-0.010821787,No Color
1098,JAL,-103.1872,32.1103,-0.002495017,No Color
1522,JAMESTOWN 2 NW,-80.4681,41.4992,-0.005189195,No Color
726,JAMESTOWN MUNI AP,-98.6692,46.9258,-0.002586698,No Color
1390,JAMESTOWN STATE HOSP,-98.685,46.8844,0.000962419,Dark Green
1903,JASPER 1 NNW,-84.4461,34.4758,-0.003207565,No Color
1072,JEANERETTE 5 NW,-91.7108,29.9592,-0.00615919,No Color
2306,JEFFERSON 2 E,-81.4286,36.4161,0.001394583,Dark Green
2013,JEFFERSON CITY WTP,-92.1825,38.5853,-0.00723335,No Color
242,JEMEZ SPRINGS,-106.6872,35.7783,0.000629467,Dark Green
1947,JENNINGS,-92.6642,30.2003,-0.003168027,No Color
369,JENSEN,-109.3464,40.3611,-0.008342565,No Color
40,JEROME,-114.5192,42.7325,-0.003081875,No Color
766,JERSEYVILLE 2 SW,-90.3431,39.1025,-0.003117924,No Color
148,JESS VALLEY,-120.2947,41.2683,-0.003622908,No Color
1117,JESUP 8 S,-81.8628,31.5075,0.00121928,Dark Green
283,JOHN DAY,-118.9594,44.4233,-0.001980853,No Color
2174,JOHN H KERR DAM,-78.3011,36.6003,-0.011830636,No Color
1622,JOHN MARTIN DAM,-102.9297,38.0633,-0.001218498,No Color
1844,JOHNSTON 4 SW,-81.8467,33.7775,-0.00158256,No Color
1296,JONESBORO,-67.6494,44.6453,-0.007411629,No Color
1854,JONESBORO 2 NE,-90.6589,35.8489,-0.001444454,No Color
812,JOPLIN,-110.7669,48.5617,-0.003647006,No Color
2296,JOPLIN REGIONAL AIRPORT,-94.5022,37.1467,-0.004009601,No Color
513,JORDAN,-106.9103,47.3144,9.33E-05,No Color
1732,JORDAN 1SSW,-93.6356,44.65,-0.004400202,No Color
2016,JORNADA EXP RANGE,-106.7403,32.6161,-0.000518255,No Color
1611,JULESBURG,-102.2706,40.9867,-0.004427268,No Color
108,JUNCOS 1 SE,-65.9114,18.2264,-0.012612901,No Color
1123,JUNCTION 4SSW,-99.8045,30.4453,0.003661713,Darkest Green
2680,JUNCTION KIMBLE CO AP,-99.7664,30.5108,-0.006402523,No Color
213,JUNEAU INTL AP,-134.5639,58.3567,-0.007262732,No Color
1038,KAHULUI AP,-156.4286,20.8997,-0.004268625,No Color
2037,KAILUA 446,NA,NA,0.019295419,Darkest Green
2063,KAINALIU 73.2,-155.9258,19.5336,0.004882885,Darkest Green
573,KALISPELL GLACIER AP,-114.2636,48.3042,-0.002915711,No Color
2048,KAMAS,-111.2822,40.6439,-0.0068096,No Color
42,KANAB,-112.5367,37.0286,-0.006917155,No Color
1213,KANALOHULUHULU 1075,-159.6586,22.1297,0.002347132,Darkest Green
1701,KANE 1NNE,-78.8036,41.6767,-0.00306002,No Color
2491,KANEOHE BAY MCAS,NA,NA,0.004484082,Darkest Green
988,KANOPOLIS LAKE,-97.9597,38.6078,-0.005167486,No Color
2688,KANSAS CITY DOWNTOWN AP,-94.5969,39.1208,-0.002607145,No Color
1491,KASSLER,-105.0953,39.49,-0.003359936,No Color
2001,KAYCEE,-106.6375,43.7144,-0.005293208,No Color
2543,KEARNEY 4 NE,-99.0133,40.7258,-0.002430514,No Color
748,KEENE,-72.3247,42.9389,-0.001031236,No Color
2102,KEENE 3S,-102.9208,47.8967,-0.002519575,No Color
2562,KEISER,-90.0964,35.6872,-0.009334171,No Color
2305,KEMMERER 2N,-110.5328,41.8172,0.002884278,Darkest Green
1159,KENAI MUNI AP,-151.2392,60.5797,-0.005552951,No Color
1465,KENMARE 1 WSW,-102.0975,48.6692,-0.002259673,No Color
525,KENNEBEC,-99.8628,43.9072,-0.003224278,No Color
2188,KENNETT RADIO KBOA,-90.075,36.2253,-0.00410537,No Color
562,KENNEWICK,-119.1011,46.2111,-0.005557349,No Color
1904,KENOSHA,-87.8156,42.5608,-0.007712125,No Color
218,KENT,-122.2433,47.4172,-0.006580377,No Color
916,KENTFIELD,-122.5447,37.9567,-0.005182022,No Color
606,KEO,-91.9928,34.6033,-0.005326465,No Color
1360,KEOKUK LOCK DAM 19,-91.375,40.3967,-0.000704519,No Color
1870,KEOSAUQUA,-91.9683,40.7275,-0.005120735,No Color
136,KETCHIKAN INTL AP,-131.7117,55.3567,0.003482536,Darkest Green
828,KEWANEE 1 E,-89.8997,41.2428,0.002625196,Darkest Green
624,KEWAUNEE,-87.505,44.4628,-0.002212447,No Color
461,KEY WEST INTL AP,-81.7522,24.555,-0.003263479,No Color
508,KEY WEST NAS,-81.6833,24.5833,-0.006063049,No Color
2712,KILAUEA 1134,-159.4044,22.2139,0.037676197,Darkest Green
544,KIMBALL 2NE,-103.6344,41.2453,-0.002359273,No Color
177,KING CITY,-121.1378,36.2069,-0.005931529,No Color
406,KING SALMON,-156.6294,58.6794,-0.004969873,No Color
2593,KINGMAN,-98.1136,37.6361,0.000135319,No Color
952,KINGSLEY DAM,-101.6706,41.2097,-0.001565853,No Color
1602,KINGSPORT,-82.5275,36.5194,-0.003957847,No Color
1486,KINGSVILLE,-97.8497,27.5311,-0.00674904,No Color
2313,KINGSVILLE NAAS,-97.8167,27.5,-0.00398039,No Color
1185,KINSTON 7 SE,-77.5433,35.1967,-0.006581106,No Color
1570,KIRKSVILLE,-92.5747,40.2058,-0.001263723,No Color
2673,KIRKSVILLE RGNL AP,-92.5433,40.0972,-0.001348039,No Color
1411,KIRWIN DAM,-99.1228,39.6619,-0.001193104,No Color
380,KISSIMMEE 2,-81.4239,28.2764,-0.004509626,No Color
2386,KIT CARSON,-102.8031,38.7658,0.000122941,No Color
309,KITOI BAY,NA,NA,-0.005598765,No Color
2625,KLAMATH FALLS INTL AP,-121.7242,42.1469,0.00125586,Dark Green
1610,KNOXVILLE,-93.1008,41.3247,-0.002223728,No Color
2120,KNOXVILLE MCGHEE TYSON AP,-83.9858,35.8181,-0.00448184,No Color
1637,KODIAK AP,-152.4856,57.7511,-0.002459984,No Color
261,KOFA MINE,-113.9653,33.2742,-0.006323468,No Color
1829,KOKOMO 3 WSW,-86.1758,40.4583,-0.005563113,No Color
2226,KOSCIUSKO,-89.5797,33.0583,-0.006372962,No Color
1056,KOTZEBUE RALPH WEIN AP,-162.6333,66.8667,-0.004413891,No Color
1100,LA CROSSE MUNI AP,-91.2528,43.8789,-0.006330897,No Color
820,LA GRANGE 1N,NA,NA,-0.003637684,No Color
1745,LA HARPE,-90.9686,40.5839,-0.00127769,No Color
2533,LA JUNTA MUNI AP,-103.5122,38.0494,-0.000887158,No Color
782,LA MOURE,-98.2928,46.3547,-0.003195084,No Color
867,LA VERKIN,-113.2686,37.2008,-0.012913717,No Color
50,LACROSSE,-117.8831,46.8167,-0.003781505,No Color
2187,LAFAYETTE,-86.03,36.5192,-0.009210608,No Color
1910,LAFAYETTE 2W,-85.4336,32.9069,0.003142481,Darkest Green
1415,LAFAYETTE 3SW,-85.3203,34.6639,-0.001861967,No Color
2178,LAFAYETTE 8 S,-86.9028,40.2964,-0.006876131,No Color
1402,LAFAYETTE PURDUE UNIV AP,-86.9369,40.4122,-0.00528781,No Color
2329,LAFAYETTE RGNL AP,-91.9875,30.205,-0.007952581,No Color
2508,LAHONTAN DAM,-119.0644,39.4689,-0.003749039,No Color
1540,LAJAS SUBSTN,-67.0722,18.0331,-0.009621774,No Color
1850,LAKE ARTHUR 10 SW,-92.7808,30.0031,-0.010077302,No Color
1532,LAKE CITY 2 E,-82.5942,30.1853,-0.004701786,No Color
2273,LAKE CITY 2 SE,-79.7297,33.8642,-0.00787015,No Color
882,LAKE CITY EXP FARM,-85.205,44.3089,-0.0029242,No Color
2520,LAKE MALOYA,-104.3753,36.9825,-2.46E-05,No Color
1183,LAKE MILLS,-88.8967,43.0803,-0.003821559,No Color
694,LAKE PARK,-95.3247,43.4483,-0.007417291,No Color
853,LAKE PLACID 2 S,-73.985,44.2489,-0.008927631,No Color
2332,LAKE PROVIDENCE,-91.173,32.8067,-0.004065401,No Color
592,LAKE YELLOWSTONE,-110.3986,44.5619,-0.007165452,No Color
107,LAKETOWN,-111.3208,41.825,-0.003022862,No Color
767,LAKEVIEW,-111.8125,44.5994,-0.002447962,No Color
1706,LAMAR,-102.6306,38.0936,-0.000823167,No Color
2374,LAMAR 2W,-94.3147,37.4933,-0.005484489,No Color
1157,LAMESA 1 SSE,-101.9456,32.7228,0.004748116,Darkest Green
2299,LANCASTER 2NE FLTR PLT,-76.2742,40.05,-0.0086079,No Color
1367,LANCASTER 4 WSW,-90.7889,42.8278,-0.000977345,No Color
1584,LANDER HUNT FLD AP,-108.7261,42.8153,-0.003286861,No Color
2170,LANDISVILLE 2 NW,-76.4333,40.1167,-0.006575344,No Color
280,LANDSBURG,-121.9614,47.3767,-0.002194011,No Color
1771,LANGDON EXP FARM,-98.3447,48.7622,-0.002590302,No Color
951,LANSING CAPITAL CITY AP,-84.5789,42.7803,-0.004068343,No Color
686,LAONA 6 SW,-88.7594,45.5119,-0.000296142,No Color
1170,LAPEER WWTP,-83.3075,43.0608,-0.002865736,No Color
1330,LARAMIE RGNL AP,-105.6747,41.3119,-0.005120478,No Color
1655,LAS ANIMAS,-103.2153,38.0636,-0.005317753,No Color
328,LAS VEGAS MCCARRAN AP,-115.1633,36.0719,-0.010911381,No Color
2007,LAS VEGAS MUNI AP,-105.1419,35.6542,-0.006252465,No Color
2250,LAUREL,-89.1236,31.6756,1.90E-05,No Color
1735,LAUREL 3 W,-76.9003,39.0847,-0.006434161,No Color
1929,LAURENS,-82.0219,34.4989,-0.00463908,No Color
2328,LAURINBURG,-79.4664,34.7508,-0.003196095,No Color
178,LAVA BEDS NM,-121.5011,41.7019,-0.00235097,No Color
152,LAVEEN 3 SSE,-112.1472,33.3369,-0.013793967,No Color
2391,LAVON DAM,-96.4861,33.0353,-0.003441475,No Color
1042,LAWRENCE,-71.1658,42.6992,-0.006423961,No Color
1297,LAWRENCEBURG FILT PLT,-87.3508,35.2436,-0.004837383,No Color
1931,LE CLAIRE L&D 14,-90.4006,41.5747,-0.002789812,No Color
654,LE MARS,-96.1458,42.7817,2.80E-05,No Color
575,LEABURG 1 SW,-122.6886,44.1014,-0.001953543,No Color
1572,LEAD,-103.7714,44.3533,-0.00124098,No Color
1396,LEAD HILL,-92.9158,36.4194,0.008840519,Darkest Green
2070,LEADVILLE LAKE CO AP,-106.3169,39.2292,-0.004853226,No Color
2641,LEAVENWORTH 3 S,-120.675,47.5586,-0.00424027,No Color
2312,LEBANON 2W,-92.6936,37.685,-0.000919542,No Color
673,LEECH LAKE,-94.2228,47.2467,-0.001962388,No Color
2333,LEESVILLE,-93.2397,31.1417,-0.004670415,No Color
1569,LEITCHFIELD 2 N,-86.2892,37.5108,0.003274838,Darkest Green
1407,LEMMON,-102.1575,45.9397,-0.009357258,No Color
537,LEMON COVE,-119.0264,36.3817,-0.0087448,No Color
1384,LENNEP 5 SW,-110.6003,46.3619,-0.001530947,No Color
1757,LENOIR,-81.5378,35.915,-0.003991572,No Color
291,LEONARD CREEK RCH,-118.7192,41.5167,-0.003052111,No Color
1471,LEOTI,-101.3658,38.4794,-0.000763616,No Color
523,LEROY 9 WSW,-103.0822,40.4897,-0.006103342,No Color
1392,LEVAN,-111.8653,39.5608,-0.00303403,No Color
2408,LEVELLAND,-102.3758,33.55,-0.007983533,No Color
1606,LEWISBURG 3 N,-80.4042,37.8564,0.004017558,Darkest Green
1420,LEWISBURG EXP STN,-86.8086,35.4139,-0.00176632,No Color
274,LEWISTON NEZ PERCE CO AP,-117.0156,46.3747,-0.002912618,No Color
1291,LEWISTOWN,-77.5692,40.5864,-0.004685886,No Color
2558,LEWISTOWN MUNI AP,-109.4578,47.0492,-0.002966631,No Color
1582,LEXINGTON,-79.4386,37.7767,-0.004565508,No Color
1409,LEXINGTON BLUEGRASS AP,-84.6058,38.0408,-0.005031556,No Color
468,LIBBY 1 NE RS,-115.5392,48.4036,-0.006134735,No Color
440,LIBBY 32 SSE,-115.2239,47.9733,0.001020054,Dark Green
2401,LIBERAL,-100.9294,37.0222,0.003325792,Darkest Green
2319,LIBERTY,-94.795,30.0592,-0.010371314,No Color
1152,LIBERTY 1 NE,-74.74,41.8017,-0.003835629,No Color
2335,LICKING 4N,-91.8831,37.5544,-0.004739732,No Color
339,LIFTON PUMPING STN,-111.3133,42.1231,-0.004224329,No Color
930,LIHUE WSO AP 1020.1,-159.3405,21.9839,-0.005453027,No Color
1534,LIMA WWTP,-84.1294,40.7247,-0.004024075,No Color
1856,LIMON WSMO,-103.7158,39.1894,-0.002558052,No Color
1656,LINCOLN 1 SE,-98.13,39.0294,0.000501447,Dark Green
1650,LINCOLN MUNI AP,-96.7475,40.8508,-0.003079126,No Color
1711,LINCOLNTON 4 W,-81.3289,35.4606,-0.003481908,No Color
109,LIND 3 NE,-118.5658,47.0022,-0.002846524,No Color
752,LINDBERGH LAKE,-113.7125,47.4083,-0.004122284,No Color
2705,LINESVILLE 1 S,-80.425,41.6458,-0.005093162,No Color
2389,LITCHFIELD,-94.5347,45.1278,6.50E-05,No Color
55,LITCHFIELD PARK,-112.3631,33.4992,-0.007985927,No Color
753,LITTLE FALLS CITY RES,-74.8686,43.0603,-0.004395215,No Color
480,LITTLE MTN,-81.415,34.1942,-0.000229466,No Color
202,LITTLE PORT WALTER,-134.6497,56.3831,-0.003420696,No Color
2340,LITTLE ROCK AP ADAMS FLD,-92.2389,34.7272,-0.005889375,No Color
2023,LIVE OAK,-82.965,30.2889,-0.008703328,No Color
43,LIVERMORE,-121.7692,37.6922,-0.009690522,No Color
2342,LIVINGSTON 2 NNE,-94.9256,30.7394,-0.008109203,No Color
1271,LIVINGSTON MISSION FLD,-110.4408,45.6983,-0.003442963,No Color
1062,LLANO,-98.6542,30.7425,-0.002578216,No Color
2492,LOA,-111.6433,38.4058,-0.002837146,No Color
2403,LOCKWOOD,-93.9489,37.3908,0.000399282,No Color
754,LODGEPOLE,-102.6361,41.1489,-0.00275327,No Color
2694,LOGAN,-81.9947,37.8717,-0.009857616,No Color
2477,LOGAN RADIO KVNU,-111.8561,41.7353,-0.002656777,No Color
405,LOGAN UTAH ST UNIV,-111.8033,41.7456,-0.003927912,No Color
924,LOMA,-110.5067,47.9303,0.001339137,Dark Green
417,LOMPOC,-120.4514,34.6539,-0.004557952,No Color
1806,LONDON CORBIN AP,-84.0769,37.0872,-0.006246808,No Color
1874,LONDON LOCKS,-81.3706,38.1947,-0.003550519,No Color
1151,LONDON STATE FISH HATCHERY,-83.5097,39.8972,0.001063104,Dark Green
784,LONE ROCK TRI CO AP,-90.1814,43.2119,-0.004865424,No Color
427,LONG BEACH DAUGHERTY FLD,-118.1464,33.8117,-0.001881867,No Color
1284,LONG BRANCH OAKHURST,-74.0047,40.2797,-0.005458072,No Color
1922,LONG CREEK,-83.2678,34.7975,7.58E-05,No Color
1032,LONG FALLS DAM,-70.1983,45.2219,-0.005937023,No Color
1695,LONG PRAIRIE,-94.8892,45.9647,-0.00126762,No Color
1453,LONGVIEW,-122.9164,46.1506,-0.008578429,No Color
105,LOOKOUT POINT DAM,-122.76,43.9144,-0.003603712,No Color
2068,LOS ALAMOS,-106.3214,35.8644,-0.005410807,No Color
600,LOS ANGELES DWTN USC CAMPUS,-118.2353,34.0511,-0.000309344,No Color
442,LOS ANGELES INTL AP,-118.3889,33.9381,-0.001268364,No Color
112,LOS BANOS,-120.8667,37.0564,-0.008020166,No Color
142,LOS GATOS,-121.9592,37.2319,-0.004146422,No Color
2069,LOS LUNAS 3 SSW,-106.7611,34.7675,-0.007927083,No Color
2172,LOUISA,-78.0061,38.0422,-0.002622039,No Color
2259,LOUISBURG,-78.3039,36.1028,-0.003717479,No Color
2240,LOUISVILLE,-89.0711,33.1356,-0.005967626,No Color
2161,LOUISVILLE INTL AP,-85.7392,38.1811,-0.008579058,No Color
1646,LOVELL,-108.4042,44.8375,0.000183834,No Color
264,LOVELOCK,-118.4767,40.1906,0.005221051,Darkest Green
1141,LOVELOCK DERBY FLD,-118.5692,40.0681,-0.005207634,No Color
1623,LOVEWELL DAM,-98.0256,39.9,-0.001993927,No Color
927,LOWVILLE,-75.4817,43.7975,-0.000760461,No Color
2387,LUBBOCK,-101.8136,33.6542,-0.006471704,No Color
693,LUDLOW 3 SSE,-103.3719,45.785,-0.001183511,No Color
1066,LUFKIN ANGELINA CO AP,-94.7544,31.2361,-0.005155855,No Color
1067,LULING,-97.6578,29.6756,-0.000946984,No Color
2067,LUNA RS,-108.9417,33.8225,-0.008839904,No Color
1166,LUPTON 1S,-84.0233,44.42,-0.004682547,No Color
1619,LURAY 5 E,-78.3728,38.6661,-0.009614552,No Color
1568,LYNCHBURG RGNL AP,-79.2067,37.3208,-0.002719313,No Color
1418,LYNXVILLE DAM 9,-91.0986,43.2117,-0.005425842,No Color
238,MACKAY LOST RIVER RS,-113.6317,43.9181,-0.002895911,No Color
1975,MACON MIDDLE GA RGNL AP,-83.6528,32.6847,-0.002227236,No Color
1139,MADELINE ISLAND,-90.7653,46.7781,-0.00739924,No Color
60,MADERA,-120.0378,36.9539,0.000543666,Dark Green
1140,MADILL,-96.7708,34.0919,-0.001274094,No Color
1687,MADISON 3NNW,-81.8464,38.1025,-0.007299638,No Color
1073,MADISON DANE RGNL AP,-89.3453,43.1406,-0.006357166,No Color
1567,MADISON WWTP,-96.1661,45.0025,-0.001824562,No Color
1122,MADISONVILLE,-95.9203,30.9392,-0.002835922,No Color
527,MADRAS,-121.0011,44.6167,0.004120322,Darkest Green
514,MADRAS 2 N,-121.1461,44.6633,-0.00672069,No Color
472,MADRID,-101.5428,40.8508,0.001304497,Dark Green
17,MALAD CITY,-112.2872,42.1492,-0.004061254,No Color
1162,MALHEUR BRANCH EXP STN,-117.0247,43.9794,-0.001953246,No Color
2506,MALHEUR REFUGE HQ,-118.8447,43.265,6.37E-05,No Color
509,MALTA 35 S,-107.9556,47.8417,-0.003123617,No Color
2347,MALVERN,-92.8364,34.3947,-0.005329735,No Color
2267,MAMMOTH CAVE,-86.1481,37.1317,-0.009331798,No Color
1871,MAMMOTH SPRING,-91.535,36.4947,0.001637971,Dark Green
2089,MANASSA,-105.9392,37.1742,-0.006219567,No Color
2596,MANATI 2 E,-66.4661,18.4308,-0.006171986,No Color
773,MANDAN EXP STN,-100.9097,46.8128,-0.00371803,No Color
1818,MANILA,-109.7258,40.99,0.00151821,Dark Green
572,MANISTEE 3SE,-86.2939,44.2114,-0.00459776,No Color
1518,MANISTIQUE WWTP,-86.2514,45.9511,-0.008094123,No Color
700,MANITOWOC,-87.6522,44.0869,-0.00314024,No Color
229,MANLEY HOT SPRINGS,-150.638,64.9989,-0.004550998,No Color
591,MANSFIELD 5 W,-82.6167,40.7667,-0.005882018,No Color
593,MANSFIELD LAHM MUNI AP,-82.5178,40.8203,-0.003057821,No Color
505,MANTI,-111.6306,39.2583,0.001030355,Dark Green
134,MANZANITA LAKE,-121.5767,40.5411,-0.000803862,No Color
597,MAPLE CITY 1E,-85.8353,44.855,-0.00454869,No Color
657,MAPLETON NO.2,-95.7836,42.1619,-0.000752511,No Color
1434,MAQUOKETA 4 W,-90.7489,42.0494,0.00266543,Darkest Green
2496,MARATHON,-103.2717,30.1925,-0.009026782,No Color
954,MARBLE HILL,-89.9664,37.3036,-0.004001674,No Color
1527,MARCUS HOOK,-75.4283,39.8253,-0.007117156,No Color
2198,MARIANNA 2 S,-90.7664,34.7392,-0.003360559,No Color
1189,MARIETTA 5SW,-97.1642,33.8761,0.002956866,Darkest Green
791,MARINETTE,-87.6236,45.0983,-0.00021971,No Color
868,MARION 2 N,-83.1333,40.6167,-0.004771703,No Color
2160,MARION 2 NW,-82.0289,35.7072,0.003892702,Darkest Green
125,MARION FRKS FISH HATCH,-121.9486,44.6125,-0.004593336,No Color
2298,MARION JUNCTION 2 NE,-87.2314,32.4714,-0.005027642,No Color
1119,MARLIN 3 NE,-96.8581,31.3336,-0.003662586,No Color
1542,MARQUETTE,-87.5483,46.5311,-0.00571824,No Color
1245,MARSHALL,-93.2225,39.1342,0.00270672,Darkest Green
669,MARSHALLTOWN,-92.9244,42.0647,-0.000594929,No Color
1470,MARSHFIELD EXP FARM,-90.1333,44.6411,-0.003674216,No Color
521,MARTIN,-101.7386,43.1803,-0.000686217,No Color
2575,MARTIN U OF T BRANCH E,-88.8636,36.3444,-0.005251112,No Color
1781,MARTINSBURG E WV RGNL AP,-77.9844,39.4019,-0.006652308,No Color
2692,MARTINSVILLE 2 SW,-86.453,39.4039,0.000364794,No Color
1983,MARTINSVILLE FLTR PLT,-79.865,36.7056,-0.002224243,No Color
1545,MARYSVILLE,-83.3669,40.2411,-0.010278613,No Color
2428,MARYVILLE 2E,-94.8342,40.3458,-0.006325283,No Color
375,MASON,-99.2306,30.7478,-0.003173042,No Color
617,MASON CITY MUNI AP,-93.3269,43.1544,-0.001840885,No Color
996,MASSABESIC LAKE,-71.3933,42.9892,-0.003841397,No Color
771,MASSENA INTL AP,-74.8458,44.9358,-0.005694734,No Color
2445,MATADOR,-100.825,34.0044,-0.000764716,No Color
1083,MATAGORDA NO 2,-95.9733,28.6836,-0.003408282,No Color
200,MATANUSKA EXPERIMENT FARM,-149.2542,61.5664,-0.003718163,No Color
1475,MATHER 3 NW,-90.3483,44.1747,-0.002647982,No Color
2015,MAUNA LOA SLOPE OBS 39,NA,NA,-0.009084694,No Color
1477,MAUSTON 1 SE,-90.0597,43.79,-0.004715985,No Color
1456,MAX,-101.2922,47.8214,-0.005706589,No Color
2514,MAXWELL 3 NW,-104.5867,36.5697,-0.003933902,No Color
10,MAY 2SSE,-113.8953,44.5664,-0.000496648,No Color
2027,MAYAGUEZ CITY,-67.1378,18.1875,-0.003140573,No Color
2538,MAYBELL,-108.0947,40.5158,-0.002029626,No Color
2090,MAYO,-83.1819,30.1064,-0.002973779,No Color
2626,MAYPORT PILOT STN,-81.4167,30.4,-0.007041867,No Color
2478,MAYSVILLE SEWAGE PLT,-83.7872,38.6869,-0.002088684,No Color
708,MAYVILLE,-97.3514,47.4989,0.001063179,Dark Green
850,MC CALL,-116.1047,44.8872,-0.001111741,No Color
132,MC CLOUD,-122.1383,41.2514,-0.004882198,No Color
775,MC CLUSKY,-100.4444,47.4825,-0.003634033,No Color
751,MC COOK,-100.6203,40.2156,-0.001449273,No Color
1512,MC HENRY 3W,-98.6422,47.5808,-0.003664214,No Color
1325,MC INTOSH 6 SE,-101.2767,45.8383,-0.004189274,No Color
615,MC LEOD 3 E,-97.2392,46.3911,-0.000957363,No Color
1314,MC MILLIN RSVR,NA,NA,-0.006636607,No Color
2152,MC MINNVILLE,-85.7811,35.6722,-0.008091716,No Color
386,MC NARY 2N,-109.8589,34.1142,-0.002999004,No Color
2216,MCALESTER RGNL AP,-95.7831,34.8822,-0.003875829,No Color
2327,MCALLEN,-98.2511,26.1917,-0.012181527,No Color
1485,MCCAMEY,-102.2217,31.1331,-0.005277745,No Color
2676,MCCAMMON,-112.1919,42.6447,0.003434738,Darkest Green
1979,MCCOLL 3 NNW,-79.5683,34.7056,-0.003254377,No Color
585,MCCOMB/PIKE CO/JOHN E LEWIS AP,-90.4708,31.1828,-0.008931632,No Color
2550,MCCOOK,-98.1236,26.565,-0.010393961,No Color
1376,MCGAFFEY 5 SE,-108.4447,35.3364,-0.00881,No Color
102,MCGILL,-114.7733,39.4136,-0.006377906,No Color
1071,MCGRATH AP,-155.6103,62.9575,-0.004844931,No Color
164,MCKENZIE BRG RS,-122.1164,44.1792,-0.001539107,No Color
2088,MCKINLEY PARK,-148.9692,63.7175,-0.001898565,No Color
2437,MCPHERSON,-97.6097,38.3772,-0.001603452,No Color
2645,MEACHAM,-118.4247,45.5114,0.002818038,Darkest Green
1020,MEADE,-100.345,37.285,-0.003024479,No Color
411,MECCA FIRE STN,-116.0767,33.5714,-0.009152207,No Color
1458,MEDFORD,-90.3439,45.1308,-0.002280609,No Color
254,MEDFORD ROGUE VLY AP,-122.8722,42.3811,-0.00891869,No Color
540,MEDICINE BOW,-106.2061,41.8969,-0.004703441,No Color
1557,MEDICINE CREEK DAM,-100.2228,40.3761,-0.004755869,No Color
1116,MEDICINE LAKE 3 SE,-104.4514,48.4828,0.001154028,Dark Green
1328,MEDORA,-103.5264,46.9161,-0.001457945,No Color
2648,MEEKER,-107.9058,40.0358,0.000527512,Dark Green
1948,MEEKER 5 W,-96.9772,35.505,-0.000606099,No Color
320,MELBOURNE WFO,-80.6539,28.1136,-0.005495857,No Color
679,MELLEN 4 NE,-90.6417,46.3689,-0.004245769,No Color
786,MELLETTE 4 W,-98.5825,45.155,-0.000243073,No Color
2364,MELROSE,-103.625,34.4278,-0.010175387,No Color
880,MELSTONE,-107.8706,46.6006,-0.006516494,No Color
2324,MEMPHIS INTL AP,-89.9864,35.0564,-0.005930312,No Color
1158,MENA,-94.2494,34.5731,-0.001723283,No Color
1108,MENARD,-99.7958,30.9144,-0.002106504,No Color
640,MENNO,-97.5714,43.2358,-0.004298996,No Color
1718,MENOMONIE,-91.9364,44.8742,-0.00063589,No Color
169,MERCED,NA,NA,-0.004959253,No Color
1516,MERIDIAN KEY FLD,-88.7442,32.3347,-0.002897613,No Color
1461,MERRILL,-89.6617,45.1786,-0.002843942,No Color
2504,MESA VERDE NP,-108.4883,37.1986,0.000519194,Dark Green
2574,METTER,-82.0819,32.3972,-0.003587149,No Color
817,MEXICAN HAT,-109.8675,37.1497,-0.005223824,No Color
2417,MEXICO,-91.8861,39.1756,-0.008065033,No Color
466,MIAMI BEACH,-80.1336,25.8064,-0.005307997,No Color
373,MIAMI INTL AP,-80.3164,25.7906,-0.005880247,No Color
1013,MIDDLE DAM,-70.9211,44.7786,-0.009805179,No Color
1864,MIDDLEBOURNE 3 ESE,-80.9047,39.4953,-0.001904665,No Color
1760,MIDDLETOWN 4 W,-72.7167,41.55,-0.003707324,No Color
2630,MIDDLETOWN HARRISBURG INTL AP,-76.7633,40.1936,-0.007253042,No Color
1079,MIDLAND 4 ENE,-102.0258,32.0186,-0.007746263,No Color
1120,MIDLAND ODESSA,-102.1889,31.9433,-0.008332092,No Color
2474,MIDVILLE EXP STN,-82.2156,32.8753,-0.003763992,No Color
2591,MIDWEST,-106.2772,43.4131,0.001971508,Darkest Green
1673,MILACA,-93.6617,45.7533,-0.00132631,No Color
1626,MILAN 1 NW,-95.9269,45.1219,-0.007698431,No Color
2138,MILAN EXP STN,-88.7267,35.9328,-0.006085973,No Color
471,MILES CITY F WILEY FLD,-105.8825,46.4267,-0.004515364,No Color
1616,MILESVILLE 5 NE,-101.6192,44.5208,-0.003465984,No Color
637,MILFORD 4 NW,-95.1842,43.3828,-0.00208151,No Color
1188,MILFORD GM PROVING GRD,-83.6844,42.5794,-0.001364911,No Color
2136,MILLBROOK,-73.67,41.8553,0.002314408,Darkest Green
2062,MILLEDGEVILLE,-83.2497,33.0831,-0.009521243,No Color
1756,MILLER,-98.9814,44.5178,0.003414813,Darkest Green
1813,MILLERSBURG,-81.9197,40.5375,-0.003439006,No Color
2624,MILLINOCKET MUNI AP,-68.6925,45.6478,-0.005896324,No Color
487,MILLPORT 4 NE,-80.8561,40.7692,-0.007908507,No Color
1762,MILLVILLE MUNI AP,-75.0667,39.3667,-0.002560752,No Color
500,MILTON FREEWATER,-118.4089,45.9428,-0.003495125,No Color
1466,MILWAUKEE MITCHELL AP,-87.9044,42.955,-0.008609259,No Color
1526,MILWAUKEE MT MARY CLG,-88.0294,43.0719,-0.003729786,No Color
463,MINA,-118.1056,38.3844,-0.005943453,No Color
2092,MINCHUMINA,-152.2817,63.9033,0.001751846,Dark Green
515,MINDEN,-119.7758,38.9547,-0.009169886,No Color
2505,MINERAL WELLS AP,-98.0603,32.7817,-0.002050838,No Color
579,MINIDOKA DAM,-113.5003,42.6767,-0.002222768,No Color
1590,MINNEAPOLIS,-97.7047,39.1247,-0.001840581,No Color
683,MINNEAPOLIS/ST PAUL AP,-93.2289,44.8831,-0.005278252,No Color
649,MINOCQUA,-89.7322,45.8864,-0.0017478,No Color
1886,MINONK,-89.0339,40.9125,-0.003486725,No Color
1489,MINOT EXP STN,-101.2964,48.1803,-0.001232882,No Color
661,MINOT INTL AP,-101.2733,48.2553,-0.002999468,No Color
1712,MISSION 14 S,-100.6083,43.1114,-0.00082049,No Color
2638,MISSOULA 6 NW WFO,-114.0911,46.9244,-0.009079238,No Color
315,MISSOULA INTL AP,-114.0925,46.9208,-0.004012452,No Color
479,MITCHELL 5E,-103.7008,41.9481,-0.004584233,No Color
551,MOAB,-109.5458,38.5744,-0.004542407,No Color
2315,MOBERLY,-92.4369,39.4194,-3.64E-05,No Color
1414,MOBILE,-88.2397,30.6794,0.000605298,Dark Green
2682,MOBILE DWTN AP,-88.0681,30.6264,-0.005722333,No Color
1394,MOBRIDGE 2NNW,-100.4489,45.5656,-0.003214748,No Color
2594,MOCCASIN EXP STN,-109.9514,47.0575,-0.005120112,No Color
57,MODESTO CITY CO AP,-120.9506,37.6242,-0.00885124,No Color
361,MOFFETT FEDERAL AIRFIELD,-122.0481,37.4058,-0.00577026,No Color
2552,MOFFIT 3 SE,-100.2294,46.6706,-0.00487363,No Color
1463,MOHALL,-101.5089,48.7603,-0.000736793,No Color
1031,MOHONK LAKE,-74.155,41.7681,-0.005684909,No Color
1368,MOLINE QUAD CITY INTL AP,-90.5233,41.4653,-0.003736456,No Color
2032,MOLOKAI AP,-157.0961,21.1544,0.0057101,Darkest Green
1733,MONDOVI,-91.6719,44.5647,-0.003768079,No Color
206,MONROE,-121.9944,47.8453,3.68E-05,No Color
1700,MONROE 2 SE,-80.5233,34.9797,-0.005413367,No Color
2338,MONROE RGNL AP,-92.0406,32.5156,-0.005478602,No Color
470,MONTAGUE 4 NW,-86.4175,43.4614,-0.001813296,No Color
2058,MONTE VISTA 2W,-106.1872,37.5811,0.001132872,Dark Green
2151,MONTEAGLE,-85.8417,35.2244,0.001880103,Darkest Green
1541,MONTELLO,-89.3169,43.7806,-0.001880811,No Color
866,MONTELLO 2NE,-114.1708,41.2783,0.002644261,Darkest Green
789,MONTEVIDEO 1 SW,-95.7461,44.9342,-0.002186484,No Color
277,MONTEZUMA CASTLE NM,-111.8381,34.6106,-0.006040815,No Color
1896,MONTGOMERY AP,-86.4075,32.2997,-0.004201827,No Color
1405,MONTICELLO 3 NE,-84.8275,36.8667,-0.000966506,No Color
1917,MONTICELLO 5 SE,-83.7833,30.4922,-0.008595409,No Color
2214,MONTICELLO MUNI AP,-91.7556,33.6361,-0.008852657,No Color
2435,MONTROSE #2,-107.8792,38.4858,-0.004617524,No Color
1036,MOORE HAVEN LOCK 1,-81.0872,26.84,-0.007230796,No Color
1681,MOOREFIELD 1 SSE,-78.9664,39.0461,-0.000698126,No Color
2542,MOORHEAD 9 NE,-105.7517,45.1758,-0.008980171,No Color
199,MOOSE,-110.7169,43.6536,-0.005482673,No Color
718,MOOSE LAKE 1 SSE,-92.7578,46.4378,-0.005840446,No Color
713,MORA,-93.3147,45.8775,-0.00239098,No Color
44,MORAN 5WNW,-110.5889,43.8567,-0.000806744,No Color
342,MOREHEAD CITY 2 WNW,-76.7358,34.7336,-0.006059654,No Color
2202,MORGAN CITY,-91.1761,29.6833,-0.001267743,No Color
2254,MORGANTON,-81.6728,35.7297,1.70E-05,No Color
854,MORGANTOWN HART FLD,-79.9164,39.6428,-0.00621347,No Color
2249,MORGANTOWN L&D,-79.9697,39.6203,-0.003735295,No Color
2057,MORMON FLAT,NA,NA,-0.010289146,No Color
588,MORO,-120.7236,45.4825,-0.004136855,No Color
120,MORONI,-111.5872,39.5267,-0.004793198,No Color
2334,MORRILTON,-92.7672,35.1581,0.003555349,Darkest Green
2662,MORRIS 1 NW,-88.4336,41.3708,-0.006779375,No Color
776,MORRIS WC EXP STN,-95.8747,45.5903,-0.003221709,No Color
821,MORRISON,-89.9744,41.8039,-0.000840333,No Color
296,MORRISVILLE 6 SW,-75.7264,42.8417,-0.006172322,No Color
359,MORRO BAY FIRE DEPT,-120.8456,35.3672,-0.00230248,No Color
1358,MOSBY 4 ENE,-107.8225,47.0219,-0.000543363,No Color
121,MOSCOW U OF I,-116.9558,46.7281,-0.004619609,No Color
2631,MOSES LAKE GRANT CO AP,-119.3192,47.2078,0.001658028,Dark Green
2407,MOSQUERO 1 NE,-103.9439,35.8022,-0.008909215,No Color
1801,MOULTON 2,-87.2989,34.4883,-0.002135506,No Color
1968,MOULTRIE 2 ESE,-83.7492,31.1769,-0.006397745,No Color
2567,MOUND VALLEY 3 WSW,-95.4508,37.1872,0.000630874,Dark Green
2071,MOUNTAINAIR,-106.2606,34.5208,-0.00852133,No Color
446,MOXEE CITY 10 E,-120.1678,46.5053,-0.005601845,No Color
308,MT ADAMS RS,-121.5403,45.9997,-0.006510029,No Color
1782,MT AIRY 2 W,-80.6508,36.4992,0.004042414,Darkest Green
2443,MT AYR,-94.2428,40.7053,0.000455846,Dark Green
1816,MT CARROLL,-89.9842,42.0981,-0.004095666,No Color
879,MT CLEMENS ANG BASE,-82.8183,42.6083,-0.005376258,No Color
1835,MT DIABLO JUNCTION,-121.9303,37.8792,0.005278406,Darkest Green
367,MT HAMILTON,-121.6425,37.3436,-0.000189663,No Color
977,MT LOCKE,-104.0233,30.7053,-0.007152083,No Color
976,MT MANSFIELD,-72.8153,44.5247,-0.004576455,No Color
1337,MT PLEASANT 1 SSW,-91.5647,40.9486,-0.001845634,No Color
1807,MT PLEASANT 1N,-87.2019,35.5572,-0.003203118,No Color
855,MT PLEASANT UNIV,-84.7697,43.5858,-0.005564912,No Color
1849,MT STERLING,-83.9333,38.0583,0.006017312,Darkest Green
1019,MT SUNAPEE,-72.0792,43.3325,-0.004595157,No Color
917,MT VERNON 3 NE,-88.8533,38.3483,0.001387323,Dark Green
857,MT WASHINGTON,-71.2994,44.2667,-0.004758051,No Color
2270,MT WEATHER,-77.8883,39.0642,-0.00714853,No Color
449,MT WILSON CBS,-118.0711,34.2308,-0.009162313,No Color
2687,MTN CITY 2,-81.8033,36.4739,-0.003375191,No Color
918,MTN DELL DAM,-111.7222,40.7497,-0.004452884,No Color
2343,MTN GROVE 2 N,-92.2617,37.1542,-0.001019195,No Color
2234,MTN HOME 1 NNW,-92.3939,36.3458,-0.004293133,No Color
486,MTN LAKE,-81.5992,27.9378,-0.003955089,No Color
1504,MTN PARK,-105.8225,32.9539,-0.005388888,No Color
425,MUD MTN DAM,-121.9356,47.1414,0.001431873,Dark Green
1381,MULESHOE #1,-102.7328,34.2192,-0.002768653,No Color
804,MUNISING,-86.6625,46.4122,-0.004294118,No Color
1349,MURDO,-100.7078,43.8894,-0.002901588,No Color
1343,MURFREESBORO 5 N,-86.3728,35.9203,-0.003891184,No Color
1332,MUSCATINE,-91.0728,41.4075,-0.003785521,No Color
1877,MUSCLE SHOALS RGNL AP,-87.5997,34.7442,-0.005570837,No Color
583,MUSKEGON CO AP,-86.2367,43.1711,-0.006525764,No Color
2278,MUSKOGEE,-95.3339,35.7781,-0.002603987,No Color
983,MUTUAL,-99.17,36.2283,0.00120499,Dark Green
530,MYAKKA RIVER SP,-82.3161,27.2417,-0.007728121,No Color
935,MYSTIC LAKE,-109.7311,45.2436,-0.003072147,No Color
118,MYTON,-110.0617,40.1942,-0.007100802,No Color
2285,NAHUNTA 6NE,-81.9197,31.2739,0.000220375,No Color
502,NANTUCKET MEM AP,-70.0608,41.2531,-0.006447988,No Color
336,NAPA STATE HOSPITAL,-122.2647,38.2778,-0.005757184,No Color
2525,NASHUA 2 NNW,-71.4736,42.7914,-0.009535186,No Color
1810,NASHVILLE 1 E,-89.3586,38.3431,-0.001925433,No Color
1719,NASHVILLE INTL AP,-86.6892,36.1189,-0.003809171,No Color
2341,NATCHEZ,-91.3408,31.5889,0.001329479,Dark Green
2215,NATL ARBORETUM DC,-76.97,38.9133,-0.007345622,No Color
2622,NATURAL BRG,-111.4533,34.3222,-0.001352322,No Color
197,NEEDLES AP,-114.6189,34.7675,-0.009077576,No Color
1404,NEILLSVILLE 3ESE,-90.535,44.5378,-0.000358288,No Color
2670,NENANA MUNI AP,-149.0717,64.55,-0.004158305,No Color
91,NEOLA,-110.0511,40.4178,-0.004888869,No Color
1949,NEOSHO,-94.36,36.8639,-0.001078718,No Color
129,NEPHI,-111.8319,39.7122,-0.0009387,No Color
2696,NESHAMINY FALLS,-74.955,40.1358,0.006528415,Darkest Green
1283,NESS CITY,-99.91,38.4478,-0.000415264,No Color
271,NEVADA CITY,-121.0008,39.2467,-0.008094521,No Color
2346,NEVADA WTP,-94.3736,37.8394,-0.003811716,No Color
329,NEW BERN CRAVEN CO AP,-77.0481,35.0678,-0.004062152,No Color
